,ISSUE_DATE,ADDRESS,CITY,ZIPCODE,LATITUDE,LONGITUDE,DISTRICT,NEIGHBORHOOD,geometry,index_right,FID,OBJECTID,NH_CODE,NH_NAME,SHAPE_AREA,SHAPE_LEN,Shape__Are,Shape__Len
10615,2024-12-30 05:00:00,2208 W MARKET ST,LOUISVILLE,40212,38.25834467,-85.78713912,5.0,RUSSELL,POINT (-85.78713912 38.25834467),8.0,9.0,9.0,58.0,RUSSELL,39120816.5583,30140.1113728,5903448.6171875,11696.3609495239
10616,2024-12-30 05:00:00,702 GHEENS AVE,LOUISVILLE,40214,38.16662478,-85.7770508,21.0,IROQUOIS,POINT (-85.7770508 38.16662478),87.0,88.0,88.0,40.0,IROQUOIS,11842680.5471,13812.6910067,1782853.48828125,5360.83816734473
10617,2024-12-30 05:00:00,501 E BRECKINRIDGE ST,LOUISVILLE,40203,38.24061267,-85.74613709,4.0,SMOKETOWN JACKSON,POINT (-85.74613709 38.24061267),20.0,21.0,21.0,64.0,SMOKETOWN JACKSON,11034983.6131,13830.1607788,1664642.890625,5369.82622756759
10618,2024-12-30 05:00:00,452 SWING LN,MOCKINGBIRD VALLEY,40207,38.26885626,-85.67600553,16.0,,POINT (-85.67600553 38.26885626),,,,,,,,,
10619,2024-12-30 05:00:00,509 ALGER AVE,LOUISVILLE,40214,38.16712352,-85.77297987,21.0,IROQUOIS,POINT (-85.77297987 38.16712352),87.0,88.0,88.0,40.0,IROQUOIS,11842680.5471,13812.6910067,1782853.48828125,5360.83816734473
10620,2024-12-30 05:00:00,403 SCOTTSDALE BLVD,LOUISVILLE,40214,38.13951415,-85.77283298,13.0,,POINT (-85.77283298 38.13951415),,,,,,,,,
10621,2024-12-30 05:00:00,2708 LAMONT RD,LOUISVILLE,40205,38.20926831,-85.69257375,8.0,HAYFIELD DUNDEE,POINT (-85.69257375 38.20926831),60.0,61.0,61.0,33.0,HAYFIELD DUNDEE,16435765.2403,16322.3177488,2477163.3515625,6337.23248303272
10622,2024-12-30 05:00:00,4029 HENDERSON AVE,LOUISVILLE,40213,38.19541957,-85.72457184,21.0,PRESTONIA,POINT (-85.72457184 38.19541957),71.0,72.0,72.0,56.0,PRESTONIA,10395510.0456,15768.9130724,1566159.05859375,6117.3781568667
10623,2024-12-30 05:00:00,105 E ESPLANADE AVE,LOUISVILLE,40214,38.16184317,-85.76980518,21.0,SOUTHSIDE,POINT (-85.76980518 38.16184317),83.0,84.0,84.0,67.0,SOUTHSIDE,25638034.4241,28565.2760312,3860205.3984375,11092.7095503978
10624,2024-12-30 05:00:00,8214 MADRONE AVE,LOUISVILLE,40258,38.13283854,-85.86749226,14.0,,POINT (-85.86749226 38.13283854),,,,,,,,,
10625,2024-12-30 05:00:00,6103 SANTA FE TRL,LOUISVILLE,40258,38.16429423,-85.87773219,1.0,,POINT (-85.87773219 38.16429423),,,,,,,,,
10626,2024-12-30 05:00:00,12618 BAY TREE WAY,LOUISVILLE,40245,38.30859642,-85.52043415,17.0,,POINT (-85.52043415 38.30859642),,,,,,,,,
10627,2024-12-30 05:00:00,4729 BURKLEY AVE,LOUISVILLE,40214,38.17923059,-85.77000559,21.0,BEECHMONT,POINT (-85.77000559 38.17923059),78.0,79.0,79.0,6.0,BEECHMONT,40279693.3847,29071.6030981,6066389.4921875,11283.411717426
10628,2024-12-30 05:00:00,128 VERNON AVE,LOUISVILLE,40206,38.25546659,-85.70820411,9.0,CLIFTON,POINT (-85.70820411 38.25546659),9.0,10.0,10.0,22.0,CLIFTON,19009888.5274,17779.8130048,2868707.6328125,6903.68857888366
10629,2024-12-30 05:00:00,8813 WISDOM LN,HERITAGE CREEK,40229,38.09323961,-85.61075208,23.0,,POINT (-85.61075208 38.09323961),,,,,,,,,
10630,2024-12-30 05:00:00,1811 BICKNELL AVE,LOUISVILLE,40215,38.1840012,-85.7928867,15.0,HAZELWOOD,POINT (-85.7928867 38.1840012),80.0,81.0,81.0,34.0,HAZELWOOD,17899405.0775,21086.5764636,2695716.7265625,8186.18074166458
10631,2024-12-30 05:00:00,9706 LOWER RIVER RD,LOUISVILLE,40272,38.11513574,-85.89387538,14.0,,POINT (-85.89387538 38.11513574),,,,,,,,,
10632,2024-12-30 05:00:00,2701 CONESTOGA AVE,LOUISVILLE,40210,38.2268864,-85.8009552,1.0,PARK DUVALLE,POINT (-85.8009552 38.2268864),33.0,34.0,34.0,48.0,PARK DUVALLE,25371006.2933,22847.021966,3825948.40234375,8870.67181936136
10633,2024-12-30 05:00:00,1006 WILLOW POINTE DR,MIDDLETOWN,40299,38.22942976,-85.51704784,19.0,,POINT (-85.51704784 38.22942976),,,,,,,,,
10634,2024-12-30 05:00:00,211 PLAZA AVE,LOUISVILLE,40218,38.19131124,-85.65137695,2.0,,POINT (-85.65137695 38.19131124),,,,,,,,,
10635,2024-12-27 05:00:00,2201 W MAIN ST,LOUISVILLE,40212,38.2610882,-85.7872451,5.0,PORTLAND,POINT (-85.7872451 38.2610882),1.0,2.0,2.0,53.0,PORTLAND,70098295.0941,43851.3346581,10582289.578125,17022.1730714797
10636,2024-12-27 05:00:00,6300 MILLERS MEADOW DR,LOUISVILLE,40229,38.11254055,-85.64439787,23.0,,POINT (-85.64439787 38.11254055),,,,,,,,,
10637,2024-12-27 05:00:00,6302 MILLERS MEADOW DR,LOUISVILLE,40229,38.11234425,-85.64441022,23.0,,POINT (-85.64441022 38.11234425),,,,,,,,,
10638,2024-12-27 05:00:00,6305 MILLERS MEADOW DR,LOUISVILLE,40229,38.11249378,-85.6438729,23.0,,POINT (-85.6438729 38.11249378),,,,,,,,,
10639,2024-12-27 05:00:00,6307 MILLERS MEADOW DR,LOUISVILLE,40229,38.11248063,-85.6435453,23.0,,POINT (-85.6435453 38.11248063),,,,,,,,,
10640,2024-12-27 05:00:00,728 S 4TH ST,LOUISVILLE,40202,38.24498102,-85.75890314,4.0,CENTRAL BUSINESS DISTRICT,POINT (-85.75890314 38.24498102),7.0,8.0,8.0,17.0,CENTRAL BUSINESS DISTRICT,33029827.6262,27923.7528072,4984184.98046875,10844.9806632446
10641,2024-12-27 05:00:00,1805 S FLOYD ST,LOUISVILLE,40208,38.22083866,-85.75372247,6.0,UNIVERSITY,POINT (-85.75372247 38.22083866),44.0,45.0,45.0,71.0,UNIVERSITY,22759446.4023,32175.6858254,3430555.00390625,12504.9443629102
10642,2024-12-27 05:00:00,1011 CHEROKEE RD,LOUISVILLE,40204,38.24093065,-85.722044,8.0,CHEROKEE TRIANGLE,POINT (-85.722044 38.24093065),17.0,18.0,18.0,20.0,CHEROKEE TRIANGLE,27288229.1448,24982.7382953,4116574.99609375,9701.0128805024
10643,2024-12-27 05:00:00,"4402 NEWPORT RD, 3",LOUISVILLE,40218,38.17808533,-85.6406811,2.0,,POINT (-85.6406811 38.17808533),,,,,,,,,
10644,2024-12-27 05:00:00,3315 GILMORE INDUSTRIAL BLVD,LOUISVILLE,40213,38.17839663,-85.70024081,21.0,,POINT (-85.70024081 38.17839663),,,,,,,,,
10645,2024-12-27 05:00:00,5225 POPLAR LEVEL RD,LOUISVILLE,40219,38.16022329,-85.66316369,2.0,,POINT (-85.66316369 38.16022329),,,,,,,,,
10646,2024-12-27 05:00:00,727 N 33RD ST,LOUISVILLE,40212,38.27600362,-85.80083875,5.0,PORTLAND,POINT (-85.80083875 38.27600362),1.0,2.0,2.0,53.0,PORTLAND,70098295.0941,43851.3346581,10582289.578125,17022.1730714797
10647,2024-12-27 05:00:00,3906 HUNSINGER LN,LOUISVILLE,40220,38.20581572,-85.62131114,26.0,,POINT (-85.62131114 38.20581572),,,,,,,,,
10648,2024-12-27 05:00:00,2529 RIDGEWOOD AVE,LOUISVILLE,40217,38.21252993,-85.74335939,15.0,SAINT JOSEPH,POINT (-85.74335939 38.21252993),52.0,53.0,53.0,60.0,SAINT JOSEPH,16870756.5832,20421.7931986,2542919.70703125,7931.60766477006
10649,2024-12-27 05:00:00,9102 GLOVER LN,WESTWOOD,40242,38.28118279,-85.58315909,7.0,,POINT (-85.58315909 38.28118279),,,,,,,,,
10650,2024-12-27 05:00:00,5305 KATY BELLE CT,LOUISVILLE,40213,38.17217495,-85.69524492,21.0,,POINT (-85.69524492 38.17217495),,,,,,,,,
10651,2024-12-27 05:00:00,11501 MAGNOLIA VIEW CT,LOUISVILLE,40299,38.18503879,-85.55604974,20.0,,POINT (-85.55604974 38.18503879),,,,,,,,,
10652,2024-12-27 05:00:00,3825 MAMARONECK RD,LOUISVILLE,40218,38.20454449,-85.63924223,10.0,KLONDIKE,POINT (-85.63924223 38.20454449),63.0,64.0,64.0,44.0,KLONDIKE,22820490.3615,33271.2361591,3439068.91015625,12916.6732355087
10653,2024-12-27 05:00:00,5404 RIVER ROCK DR,LOUISVILLE,40241,38.32270191,-85.54182967,16.0,,POINT (-85.54182967 38.32270191),,,,,,,,,
10654,2024-12-27 05:00:00,3807 MEADOW HAVEN RD,LOUISVILLE,40218,38.19343073,-85.62230153,2.0,,POINT (-85.62230153 38.19343073),,,,,,,,,
10655,2024-12-27 05:00:00,831 CHEROKEE RD,LOUISVILLE,40204,38.24368771,-85.72406001,8.0,CHEROKEE TRIANGLE,POINT (-85.72406001 38.24368771),17.0,18.0,18.0,20.0,CHEROKEE TRIANGLE,27288229.1448,24982.7382953,4116574.99609375,9701.0128805024
10656,2024-12-27 05:00:00,"2430 MCKENDREE CT, 103",LOUISVILLE,40211,38.24825438,-85.79317686,4.0,CALIFORNIA,POINT (-85.79317686 38.24825438),16.0,17.0,17.0,14.0,CALIFORNIA,34280997.7634,24635.7794746,5171558.58984375,9562.54636869943
10657,2024-12-27 05:00:00,1508 CORNETTE WAY,LOUISVILLE,40216,38.176816,-85.80914168,15.0,CLOVERLEAF,POINT (-85.80914168 38.176816),81.0,82.0,82.0,24.0,CLOVERLEAF,20213041.9359,19107.5144213,3043897.98828125,7415.15452079604
10658,2024-12-26 05:00:00,"605 VALHALLA PARK PL, 101",LOUISVILLE,40245,38.23612898,-85.49220511,11.0,,POINT (-85.49220511 38.23612898),,,,,,,,,
10659,2024-12-26 05:00:00,"607 VALHALLA PARK PL, 101",LOUISVILLE,40245,38.23638322,-85.49216039,11.0,,POINT (-85.49216039 38.23638322),,,,,,,,,
10660,2024-12-26 05:00:00,"601 VALHALLA PARK PL, 101",LOUISVILLE,40245,38.23553283,-85.49206942,11.0,,POINT (-85.49206942 38.23553283),,,,,,,,,
10661,2024-12-26 05:00:00,"603 VALHALLA PARK PL, 101",LOUISVILLE,40245,38.23578927,-85.49216816,11.0,,POINT (-85.49216816 38.23578927),,,,,,,,,
10662,2024-12-26 05:00:00,"600 VALHALLA PARK PL, 101",LOUISVILLE,40245,38.23517619,-85.49201521,11.0,,POINT (-85.49201521 38.23517619),,,,,,,,,
10663,2024-12-26 05:00:00,"602 VALHALLA PARK PL, 101",LOUISVILLE,40245,38.23525895,-85.49172036,11.0,,POINT (-85.49172036 38.23525895),,,,,,,,,
10664,2024-12-26 05:00:00,"606 VALHALLA PARK PL, 101",LOUISVILLE,40245,38.23569173,-85.49140318,11.0,,POINT (-85.49140318 38.23569173),,,,,,,,,
10665,2024-12-26 05:00:00,"608 VALHALLA PARK PL, 101",LOUISVILLE,40245,38.23594425,-85.4914509,11.0,,POINT (-85.4914509 38.23594425),,,,,,,,,
10666,2024-12-26 05:00:00,8201 ARDEN OXMOOR LN,LOUISVILLE,40222,38.24415352,-85.60596427,18.0,REMAINDER OF CITY,POINT (-85.60596427 38.24415352),18.0,19.0,19.0,99.0,REMAINDER OF CITY,31489521.5197,29402.8597753,4750160.50390625,11417.265736898
10667,2024-12-26 05:00:00,203 HOFFMAN LN,LOUISVILLE,40222,38.24504006,-85.60590706,18.0,REMAINDER OF CITY,POINT (-85.60590706 38.24504006),18.0,19.0,19.0,99.0,REMAINDER OF CITY,31489521.5197,29402.8597753,4750160.50390625,11417.265736898
10668,2024-12-26 05:00:00,404 BELL LN,LOUISVILLE,40222,38.24360142,-85.604237,18.0,REMAINDER OF CITY,POINT (-85.604237 38.24360142),18.0,19.0,19.0,99.0,REMAINDER OF CITY,31489521.5197,29402.8597753,4750160.50390625,11417.265736898
10669,2024-12-26 05:00:00,1009 QUEEN AVE,LOUISVILLE,40215,38.20212044,-85.77677993,15.0,SOUTH LOUISVILLE,POINT (-85.77677993 38.20212044),61.0,62.0,62.0,65.0,SOUTH LOUISVILLE,21600041.4937,22937.6143854,3255196.72265625,8903.94043985458
10670,2024-12-26 05:00:00,2303 S ENGLISH STATION RD,LOUISVILLE,40299,38.2025509,-85.48092963,11.0,,POINT (-85.48092963 38.2025509),,,,,,,,,
10671,2024-12-26 05:00:00,2647 DRAYTON DR,LOUISVILLE,40205,38.22416372,-85.66993975,8.0,BOWMAN,POINT (-85.66993975 38.22416372),26.0,27.0,27.0,10.0,BOWMAN,35329001.3923,46240.3586181,5327751.07421875,17954.7960153949
10672,2024-12-26 05:00:00,1814 W LEE ST,LOUISVILLE,40210,38.22653722,-85.79194569,6.0,ALGONQUIN,POINT (-85.79194569 38.22653722),38.0,39.0,39.0,1.0,ALGONQUIN,33219618.2833,32962.9248289,5008709.046875,12793.4276295068
10673,2024-12-26 05:00:00,14506 GABLEWOOD PL,LOUISVILLE,40245,38.23231677,-85.48378282,11.0,,POINT (-85.48378282 38.23231677),,,,,,,,,
10674,2024-12-26 05:00:00,3910 JENICA WAY,LOUISVILLE,40241,38.30723505,-85.60445425,16.0,,POINT (-85.60445425 38.30723505),,,,,,,,,
10675,2024-12-26 05:00:00,2229 MILLVALE RD,LOUISVILLE,40205,38.22991245,-85.68281981,8.0,HIGHLANDS DOUGLASS,POINT (-85.68281981 38.22991245),36.0,37.0,37.0,37.0,HIGHLANDS DOUGLASS,17964144.5664,21338.6133251,2708966.01171875,8280.21130875887
10676,2024-12-26 05:00:00,1405 ROSEWOOD AVE,LOUISVILLE,40204,38.23132643,-85.72158956,8.0,TYLER PARK,POINT (-85.72158956 38.23132643),30.0,31.0,31.0,70.0,TYLER PARK,14342019.1249,17512.03337,2162950.15234375,6798.28491489716
10677,2024-12-26 05:00:00,1806 MILBURT DR,LYNDON,40223,38.27204099,-85.5604121,17.0,,POINT (-85.5604121 38.27204099),,,,,,,,,
10678,2024-12-24 05:00:00,839 LAKE FOREST PKY,LOUISVILLE,40245,38.25282002,-85.48659294,19.0,,POINT (-85.48659294 38.25282002),,,,,,,,,
10679,2024-12-24 05:00:00,1924 PAYNE ST,LOUISVILLE,40206,38.25221121,-85.71203595,9.0,CLIFTON,POINT (-85.71203595 38.25221121),9.0,10.0,10.0,22.0,CLIFTON,19009888.5274,17779.8130048,2868707.6328125,6903.68857888366
10680,2024-12-24 05:00:00,2204 HIGHLAND SPRINGS PL,LOUISVILLE,40245,38.26996708,-85.47846829,19.0,,POINT (-85.47846829 38.26996708),,,,,,,,,
10681,2024-12-23 05:00:00,8201 ARDEN OXMOOR LN,LOUISVILLE,40222,38.24415352,-85.60596427,18.0,REMAINDER OF CITY,POINT (-85.60596427 38.24415352),18.0,19.0,19.0,99.0,REMAINDER OF CITY,31489521.5197,29402.8597753,4750160.50390625,11417.265736898
10682,2024-12-23 05:00:00,4015 COLLINS LN,LOUISVILLE,40245,38.30186395,-85.52177958,19.0,,POINT (-85.52177958 38.30186395),,,,,,,,,
10683,2024-12-23 05:00:00,8201 ARDEN OXMOOR LN,LOUISVILLE,40222,38.24415352,-85.60596427,18.0,REMAINDER OF CITY,POINT (-85.60596427 38.24415352),18.0,19.0,19.0,99.0,REMAINDER OF CITY,31489521.5197,29402.8597753,4750160.50390625,11417.265736898
10684,2024-12-23 05:00:00,300 WALKER HOUSE LN,LOUISVILLE,40222,38.24468266,-85.60559753,18.0,REMAINDER OF CITY,POINT (-85.60559753 38.24468266),18.0,19.0,19.0,99.0,REMAINDER OF CITY,31489521.5197,29402.8597753,4750160.50390625,11417.265736898
10685,2024-12-23 05:00:00,302 WALKER HOUSE LN,LOUISVILLE,40222,38.24435945,-85.60536797,18.0,REMAINDER OF CITY,POINT (-85.60536797 38.24435945),18.0,19.0,19.0,99.0,REMAINDER OF CITY,31489521.5197,29402.8597753,4750160.50390625,11417.265736898
10686,2024-12-23 05:00:00,401 BELL LN,LOUISVILLE,40222,38.24400178,-85.60499338,18.0,REMAINDER OF CITY,POINT (-85.60499338 38.24400178),18.0,19.0,19.0,99.0,REMAINDER OF CITY,31489521.5197,29402.8597753,4750160.50390625,11417.265736898
10687,2024-12-23 05:00:00,403 BELL LN,LOUISVILLE,40222,38.24372664,-85.60477271,18.0,REMAINDER OF CITY,POINT (-85.60477271 38.24372664),18.0,19.0,19.0,99.0,REMAINDER OF CITY,31489521.5197,29402.8597753,4750160.50390625,11417.265736898
10688,2024-12-23 05:00:00,200 HOFFMAN LN,LOUISVILLE,40222,38.24564936,-85.60623886,18.0,REMAINDER OF CITY,POINT (-85.60623886 38.24564936),18.0,19.0,19.0,99.0,REMAINDER OF CITY,31489521.5197,29402.8597753,4750160.50390625,11417.265736898
10689,2024-12-23 05:00:00,301 WALKER HOUSE LN,LOUISVILLE,40222,38.24470996,-85.60501701,18.0,REMAINDER OF CITY,POINT (-85.60501701 38.24470996),18.0,19.0,19.0,99.0,REMAINDER OF CITY,31489521.5197,29402.8597753,4750160.50390625,11417.265736898
10690,2024-12-23 05:00:00,3606 SASSE WAY,LOUISVILLE,40245,38.28377149,-85.47795531,19.0,,POINT (-85.47795531 38.28377149),,,,,,,,,
10691,2024-12-23 05:00:00,2004 OLMSTED VIEW CT,LOUISVILLE,40205,38.23205427,-85.68709712,8.0,HIGHLANDS DOUGLASS,POINT (-85.68709712 38.23205427),36.0,37.0,37.0,37.0,HIGHLANDS DOUGLASS,17964144.5664,21338.6133251,2708966.01171875,8280.21130875887
10692,2024-12-23 05:00:00,2406 ROCKFORD LN,LOUISVILLE,40216,38.17608686,-85.84156201,1.0,,POINT (-85.84156201 38.17608686),,,,,,,,,
10693,2024-12-23 05:00:00,1820 CIMMARON TRL,LOUISVILLE,40223,38.27573587,-85.57185341,7.0,,POINT (-85.57185341 38.27573587),,,,,,,,,
10694,2024-12-23 05:00:00,7800 KENBROOK PL,LOUISVILLE,40258,38.14157737,-85.88395409,14.0,,POINT (-85.88395409 38.14157737),,,,,,,,,
10695,2024-12-23 05:00:00,5310 HEMPSTEAD RD,INDIAN HILLS,40207,38.28409945,-85.65055761,16.0,,POINT (-85.65055761 38.28409945),,,,,,,,,
10696,2024-12-23 05:00:00,2611 WELSFORD WAY,MEADOW VALE,40242,38.28213203,-85.56899096,17.0,,POINT (-85.56899096 38.28213203),,,,,,,,,
10697,2024-12-23 05:00:00,206 ALVINA WAY,LOUISVILLE,40214,38.14966789,-85.76795658,25.0,KENWOOD HILL,POINT (-85.76795658 38.14966789),89.0,90.0,90.0,43.0,KENWOOD HILL,14423643.486,17117.2921816,2170671.3984375,6641.12547061272
10698,2024-12-23 05:00:00,4308 STONEMEADOW CT,LOUISVILLE,40218,38.19149565,-85.61645417,2.0,,POINT (-85.61645417 38.19149565),,,,,,,,,
10699,2024-12-23 05:00:00,1004 WILLIAMSBURG CT,ST MATTHEWS,40207,38.23716348,-85.64783504,9.0,,POINT (-85.64783504 38.23716348),,,,,,,,,
10700,2024-12-23 05:00:00,9514 INDIAN PIPE LN,LOUISVILLE,40059,38.32622401,-85.56298965,16.0,,POINT (-85.56298965 38.32622401),,,,,,,,,
10701,2024-12-23 05:00:00,255 KENOAK DR,LOUISVILLE,40214,38.16623805,-85.77338181,21.0,IROQUOIS,POINT (-85.77338181 38.16623805),87.0,88.0,88.0,40.0,IROQUOIS,11842680.5471,13812.6910067,1782853.48828125,5360.83816734473
10702,2024-12-23 05:00:00,8906 FOX CHASE PL,LOUISVILLE,40228,38.11626797,-85.61003134,23.0,,POINT (-85.61003134 38.11626797),,,,,,,,,
10703,2024-12-23 05:00:00,2300 MANCHESTER RD,WELLINGTON,40205,38.21671714,-85.67204471,8.0,,POINT (-85.67204471 38.21671714),58.0,59.0,59.0,0.0,,2496403.48242,8069.49422422,376331.69140625,3132.25201841449
10704,2024-12-23 05:00:00,3540 VERMONT AVE,LOUISVILLE,40211,38.25576569,-85.81100086,5.0,SHAWNEE,POINT (-85.81100086 38.25576569),2.0,3.0,3.0,62.0,SHAWNEE,59953850.1745,34088.0570548,9049049.28515625,13244.602998434
10705,2024-12-23 05:00:00,5933 ASHWOOD BLUFF DR,LOUISVILLE,40207,38.282838,-85.64076797,16.0,,POINT (-85.64076797 38.282838),,,,,,,,,
10706,2024-12-23 05:00:00,8512 BAYOU WAY,PLANTATION,40242,38.283945,-85.59448036,7.0,,POINT (-85.59448036 38.283945),,,,,,,,,
10707,2024-12-23 05:00:00,"5505 LODEMA WAY, 5",LOUISVILLE,40219,38.16977456,-85.68509609,2.0,,POINT (-85.68509609 38.16977456),,,,,,,,,
10708,2024-12-23 05:00:00,3340 HIDDEN LAKE CT,LOUISVILLE,40023,38.18813036,-85.44219718,20.0,,POINT (-85.44219718 38.18813036),,,,,,,,,
10709,2024-12-22 05:00:00,2011 W BURNETT AVE,LOUISVILLE,40210,38.2306684,-85.7913997,6.0,PARK HILL,POINT (-85.7913997 38.2306684),29.0,30.0,30.0,49.0,PARK HILL,27999518.5955,23853.7955754,4222750.15625,9254.97217601144
10710,2024-12-20 05:00:00,6840 DIXIE HWY,LOUISVILLE,40258,38.1519916,-85.83910003,12.0,,POINT (-85.83910003 38.1519916),,,,,,,,,
10711,2024-12-20 05:00:00,6001 BOWMONT CT,LOUISVILLE,40216,38.16676096,-85.84898242,12.0,,POINT (-85.84898242 38.16676096),,,,,,,,,
10712,2024-12-20 05:00:00,10708 ENGLISH OAK CT,LOUISVILLE,40241,38.30676345,-85.55034101,17.0,,POINT (-85.55034101 38.30676345),,,,,,,,,
10713,2024-12-20 05:00:00,937 HESS LN,LOUISVILLE,40217,38.20631887,-85.73421185,10.0,AUDUBON,POINT (-85.73421185 38.20631887),57.0,58.0,58.0,3.0,AUDUBON,17327246.4621,22516.1622417,2611728.84375,8742.41704030239
10714,2024-12-20 05:00:00,422 BRECKENRIDGE LN,ST MATTHEWS,40207,38.24549946,-85.64973885,9.0,,POINT (-85.64973885 38.24549946),,,,,,,,,
10715,2024-12-20 05:00:00,3028 POPLAR LEVEL RD,LOUISVILLE,40217,38.21232728,-85.72202213,10.0,AUDUBON,POINT (-85.72202213 38.21232728),57.0,58.0,58.0,3.0,AUDUBON,17327246.4621,22516.1622417,2611728.84375,8742.41704030239
10716,2024-12-20 05:00:00,2425 UNIVERSAL WAY,LOUISVILLE,40219,38.13247484,-85.72293074,13.0,,POINT (-85.72293074 38.13247484),,,,,,,,,
10717,2024-12-20 05:00:00,10300 BALLARDSVILLE RD,LOUISVILLE,40241,38.3140375,-85.55875584,17.0,,POINT (-85.55875584 38.3140375),,,,,,,,,
10718,2024-12-20 05:00:00,8200 ARDEN OXMOOR LN,LOUISVILLE,40222,38.24410775,-85.6068146,18.0,REMAINDER OF CITY,POINT (-85.6068146 38.24410775),18.0,19.0,19.0,99.0,REMAINDER OF CITY,31489521.5197,29402.8597753,4750160.50390625,11417.265736898
10719,2024-12-20 05:00:00,204 HOFFMAN LN,LOUISVILLE,40222,38.24478957,-85.60645617,18.0,REMAINDER OF CITY,POINT (-85.60645617 38.24478957),18.0,19.0,19.0,99.0,REMAINDER OF CITY,31489521.5197,29402.8597753,4750160.50390625,11417.265736898
10720,2024-12-20 05:00:00,"206 PARADISE LN, 22",LOUISVILLE,40258,38.13806445,-85.87214125,14.0,,POINT (-85.87214125 38.13806445),,,,,,,,,
10721,2024-12-20 05:00:00,1475 S 15TH ST,LOUISVILLE,40210,38.22880381,-85.77971609,6.0,PARK HILL,POINT (-85.77971609 38.22880381),29.0,30.0,30.0,49.0,PARK HILL,27999518.5955,23853.7955754,4222750.15625,9254.97217601144
10722,2024-12-20 05:00:00,12121 SHELBYVILLE RD,MIDDLETOWN,40243,38.24798269,-85.52828592,17.0,,POINT (-85.52828592 38.24798269),,,,,,,,,
10723,2024-12-20 05:00:00,1031 ZORN AVE,LOUISVILLE,40207,38.27701933,-85.6958886,9.0,REMAINDER OF CITY,POINT (-85.6958886 38.27701933),0.0,1.0,1.0,99.0,REMAINDER OF CITY,25583328.3243,23718.3236902,3862566.65234375,9212.87810960147
10724,2024-12-20 05:00:00,8206 ARDEN OXMOOR LN,LOUISVILLE,40222,38.24364305,-85.60574111,18.0,REMAINDER OF CITY,POINT (-85.60574111 38.24364305),18.0,19.0,19.0,99.0,REMAINDER OF CITY,31489521.5197,29402.8597753,4750160.50390625,11417.265736898
10725,2024-12-20 05:00:00,8204 ARDEN OXMOOR LN,LOUISVILLE,40222,38.24368075,-85.60631165,18.0,REMAINDER OF CITY,POINT (-85.60631165 38.24368075),18.0,19.0,19.0,99.0,REMAINDER OF CITY,31489521.5197,29402.8597753,4750160.50390625,11417.265736898
10726,2024-12-20 05:00:00,4306 WILMOTH AVE,LOUISVILLE,40216,38.19400314,-85.87367073,1.0,,POINT (-85.87367073 38.19400314),,,,,,,,,
10727,2024-12-20 05:00:00,6018 LOVERS LN,LOUISVILLE,40291,38.1541339,-85.57297938,22.0,,POINT (-85.57297938 38.1541339),,,,,,,,,
10728,2024-12-20 05:00:00,6525 ESTELE AVE,LOUISVILLE,40214,38.16264995,-85.76334267,25.0,SOUTHLAND PARK,POINT (-85.76334267 38.16264995),88.0,89.0,89.0,66.0,SOUTHLAND PARK,19008090.658,17532.1468786,2861172.72265625,6805.45948915845
10729,2024-12-20 05:00:00,"11830 DUANE POINT CIR, 101",MIDDLETOWN,40243,38.23244498,-85.54165534,19.0,,POINT (-85.54165534 38.23244498),,,,,,,,,
10730,2024-12-20 05:00:00,17406 CREEK RUN DR,LOUISVILLE,40245,38.24587084,-85.43306376,19.0,,POINT (-85.43306376 38.24587084),,,,,,,,,
10731,2024-12-20 05:00:00,8511 WESTOVER DR,PROSPECT,40059,38.35298288,-85.59409187,16.0,,POINT (-85.59409187 38.35298288),,,,,,,,,
10732,2024-12-20 05:00:00,1605 S 31ST ST,LOUISVILLE,40211,38.22951555,-85.80717181,1.0,PARK DUVALLE,POINT (-85.80717181 38.22951555),33.0,34.0,34.0,48.0,PARK DUVALLE,25371006.2933,22847.021966,3825948.40234375,8870.67181936136
10733,2024-12-20 05:00:00,1806 PARKRIDGE PKY,LOUISVILLE,40214,38.14599907,-85.79503964,25.0,,POINT (-85.79503964 38.14599907),,,,,,,,,
10734,2024-12-20 05:00:00,664 S 40TH ST,LOUISVILLE,40211,38.25185352,-85.81859199,5.0,SHAWNEE,POINT (-85.81859199 38.25185352),2.0,3.0,3.0,62.0,SHAWNEE,59953850.1745,34088.0570548,9049049.28515625,13244.602998434
10735,2024-12-20 05:00:00,1785 W HILL ST,LOUISVILLE,40210,38.22844216,-85.78906631,6.0,PARK HILL,POINT (-85.78906631 38.22844216),29.0,30.0,30.0,49.0,PARK HILL,27999518.5955,23853.7955754,4222750.15625,9254.97217601144
10736,2024-12-20 05:00:00,7001 DALE RD,LOUISVILLE,40258,38.15075118,-85.87701606,12.0,,POINT (-85.87701606 38.15075118),,,,,,,,,
10737,2024-12-20 05:00:00,4629 DOHN RD,SHIVELY,40216,38.17943415,-85.83278383,3.0,,POINT (-85.83278383 38.17943415),,,,,,,,,
10738,2024-12-20 05:00:00,12010 DIXON PARK BLVD,LOUISVILLE,40299,38.18309932,-85.53355786,20.0,,POINT (-85.53355786 38.18309932),,,,,,,,,
10739,2024-12-20 05:00:00,8511 MICHAEL RAY DR,LOUISVILLE,40219,38.12599577,-85.65065944,23.0,,POINT (-85.65065944 38.12599577),,,,,,,,,
10740,2024-12-20 05:00:00,1101 JUNIPER SPRINGS DR,LYNDON,40242,38.263698,-85.58957683,7.0,,POINT (-85.58957683 38.263698),,,,,,,,,
10741,2024-12-20 05:00:00,7603 BEECHSPRING FARM BLVD,LOUISVILLE,40241,38.30735434,-85.61462719,16.0,,POINT (-85.61462719 38.30735434),,,,,,,,,
10742,2024-12-20 05:00:00,11401 OWL CREEK LN,ANCHORAGE,40223,38.26318866,-85.54289474,18.0,,POINT (-85.54289474 38.26318866),,,,,,,,,
10743,2024-12-20 05:00:00,4646 MARION AVE,LOUISVILLE,40213,38.17326784,-85.70938735,21.0,,POINT (-85.70938735 38.17326784),,,,,,,,,
10744,2024-12-19 05:00:00,2219 BEARGRASS AVE,LOUISVILLE,40218,38.19064144,-85.64071203,10.0,,POINT (-85.64071203 38.19064144),,,,,,,,,
10745,2024-12-19 05:00:00,1 AUDUBON PLAZA DR,LOUISVILLE,40217,38.21527417,-85.72208525,10.0,POPLAR LEVEL,POINT (-85.72208525 38.21527417),46.0,47.0,47.0,52.0,POPLAR LEVEL,33808981.0956,35940.9911517,5095783.77734375,13957.1709072282
10746,2024-12-19 05:00:00,8408 TERRY RD,LOUISVILLE,40258,38.13234768,-85.87599333,14.0,,POINT (-85.87599333 38.13234768),,,,,,,,,
10747,2024-12-19 05:00:00,2409 BROWNSBORO RD,LOUISVILLE,40206,38.25850198,-85.70107953,4.0,CLIFTON HEIGHTS,POINT (-85.70107953 38.25850198),4.0,5.0,5.0,23.0,CLIFTON HEIGHTS,17858635.5349,19464.9334526,2695641.2109375,7556.79225326745
10748,2024-12-19 05:00:00,9609 SCARBOROUGH AVE,LOUISVILLE,40272,38.11174351,-85.81274859,25.0,,POINT (-85.81274859 38.11174351),,,,,,,,,
10749,2024-12-19 05:00:00,8502 BEULAH CHURCH RD,LOUISVILLE,40291,38.13821984,-85.60320435,22.0,,POINT (-85.60320435 38.13821984),,,,,,,,,
10750,2024-12-19 05:00:00,7715 COLUMBINE DR,LOUISVILLE,40258,38.1419687,-85.86416643,14.0,,POINT (-85.86416643 38.1419687),,,,,,,,,
10751,2024-12-19 05:00:00,1968 RICHMOND DR,LOUISVILLE,40205,38.22656063,-85.69935444,8.0,DEER PARK,POINT (-85.69935444 38.22656063),37.0,38.0,38.0,26.0,DEER PARK,13693682.8636,16675.6430309,2064857.953125,6473.3467571463
10752,2024-12-19 05:00:00,10501 VENADO DR,LOUISVILLE,40291,38.14974153,-85.56400813,22.0,,POINT (-85.56400813 38.14974153),,,,,,,,,
10753,2024-12-19 05:00:00,265 ELDORADO AVE,LOUISVILLE,40218,38.19349289,-85.63181673,10.0,,POINT (-85.63181673 38.19349289),,,,,,,,,
10754,2024-12-19 05:00:00,3212 GRAND LAKES DR,LOUISVILLE,40299,38.19787151,-85.51612473,20.0,,POINT (-85.51612473 38.19787151),,,,,,,,,
10755,2024-12-19 05:00:00,2902 MEGAN THOMPSON WAY,LOUISVILLE,40220,38.22098647,-85.61836071,18.0,,POINT (-85.61836071 38.22098647),,,,,,,,,
10756,2024-12-18 05:00:00,1325 BLUEGRASS AVE,LOUISVILLE,40215,38.17997066,-85.78580884,15.0,HAZELWOOD,POINT (-85.78580884 38.17997066),80.0,81.0,81.0,34.0,HAZELWOOD,17899405.0775,21086.5764636,2695716.7265625,8186.18074166458
10757,2024-12-18 05:00:00,2143 BELMONT RD,LOUISVILLE,40218,38.20536034,-85.66931827,10.0,BASHFORD MANOR,POINT (-85.66931827 38.20536034),65.0,66.0,66.0,5.0,BASHFORD MANOR,15474178.8013,19882.2634609,2331859.84765625,7715.49114865788
10758,2024-12-18 05:00:00,5325 PRESTON HWY,LOUISVILLE,40213,38.16983149,-85.70655496,21.0,,POINT (-85.70655496 38.16983149),,,,,,,,,
10759,2024-12-18 05:00:00,5745 MALDON DR,LOUISVILLE,40216,38.17327428,-85.86388167,1.0,,POINT (-85.86388167 38.17327428),,,,,,,,,
10760,2024-12-18 05:00:00,5747 MALDON DR,LOUISVILLE,40216,38.17332903,-85.86408364,1.0,,POINT (-85.86408364 38.17332903),,,,,,,,,
10761,2024-12-18 05:00:00,5749 MALDON DR,LOUISVILLE,40216,38.17331307,-85.86427174,1.0,,POINT (-85.86427174 38.17331307),,,,,,,,,
10762,2024-12-18 05:00:00,5751 MALDON DR,LOUISVILLE,40216,38.17323651,-85.86442949,1.0,,POINT (-85.86442949 38.17323651),,,,,,,,,
10763,2024-12-18 05:00:00,5753 MALDON DR,LOUISVILLE,40216,38.17308635,-85.86466776,1.0,,POINT (-85.86466776 38.17308635),,,,,,,,,
10764,2024-12-18 05:00:00,5755 MALDON DR,LOUISVILLE,40216,38.17319948,-85.86489979,1.0,,POINT (-85.86489979 38.17319948),,,,,,,,,
10765,2024-12-18 05:00:00,3116 HARMON CT,LOUISVILLE,40213,38.21045222,-85.71878512,10.0,AUDUBON,POINT (-85.71878512 38.21045222),57.0,58.0,58.0,3.0,AUDUBON,17327246.4621,22516.1622417,2611728.84375,8742.41704030239
10766,2024-12-18 05:00:00,3613 PENWAY AVE,LOUISVILLE,40211,38.22430926,-85.81630573,1.0,PARK DUVALLE,POINT (-85.81630573 38.22430926),33.0,34.0,34.0,48.0,PARK DUVALLE,25371006.2933,22847.021966,3825948.40234375,8870.67181936136
10767,2024-12-18 05:00:00,663 S 44TH ST,LOUISVILLE,40211,38.25274688,-85.82486083,5.0,SHAWNEE,POINT (-85.82486083 38.25274688),2.0,3.0,3.0,62.0,SHAWNEE,59953850.1745,34088.0570548,9049049.28515625,13244.602998434
10768,2024-12-18 05:00:00,9704 BROOKS BEND RD,LOUISVILLE,40258,38.13764757,-85.88095491,14.0,,POINT (-85.88095491 38.13764757),,,,,,,,,
10769,2024-12-18 05:00:00,3829 POPLAR LEVEL RD,LOUISVILLE,40213,38.20413663,-85.71153995,10.0,POPLAR LEVEL,POINT (-85.71153995 38.20413663),46.0,47.0,47.0,52.0,POPLAR LEVEL,33808981.0956,35940.9911517,5095783.77734375,13957.1709072282
10770,2024-12-18 05:00:00,6206 AROXIE CT,LOUISVILLE,40258,38.14626958,-85.86572081,12.0,,POINT (-85.86572081 38.14626958),,,,,,,,,
10771,2024-12-18 05:00:00,"747 S 5TH ST, 23",LOUISVILLE,40203,38.2445199,-85.76017378,4.0,CENTRAL BUSINESS DISTRICT,POINT (-85.76017378 38.2445199),7.0,8.0,8.0,17.0,CENTRAL BUSINESS DISTRICT,33029827.6262,27923.7528072,4984184.98046875,10844.9806632446
10772,2024-12-18 05:00:00,14100 MARLEY PL,LOUISVILLE,40245,38.23415279,-85.48938483,11.0,,POINT (-85.48938483 38.23415279),,,,,,,,,
10773,2024-12-18 05:00:00,5520 INNWOOD DR,LOUISVILLE,40214,38.14637121,-85.77788754,25.0,AUBURNDALE,POINT (-85.77788754 38.14637121),90.0,91.0,91.0,2.0,AUBURNDALE,17071579.229,18911.0535626,2568647.03515625,7333.31814033276
10774,2024-12-18 05:00:00,7406 WOODHILL VALLEY RD,LOUISVILLE,40241,38.31741035,-85.6277657,16.0,,POINT (-85.6277657 38.31741035),,,,,,,,,
10775,2024-12-18 05:00:00,16900 ASH HILL DR,LOUISVILLE,40245,38.23183295,-85.44110794,11.0,,POINT (-85.44110794 38.23183295),,,,,,,,,
10776,2024-12-18 05:00:00,3019 JOAN AVE,LOUISVILLE,40205,38.22064411,-85.65586386,8.0,HAWTHORNE,POINT (-85.65586386 38.22064411),51.0,52.0,52.0,32.0,HAWTHORNE,12244929.8576,25242.103319,1846019.04296875,9792.87012993187
10777,2024-12-18 05:00:00,317 N 30TH ST,LOUISVILLE,40212,38.26481053,-85.79983631,5.0,PORTLAND,POINT (-85.79983631 38.26481053),1.0,2.0,2.0,53.0,PORTLAND,70098295.0941,43851.3346581,10582289.578125,17022.1730714797
10778,2024-12-18 05:00:00,5743 MALDON DR,LOUISVILLE,40216,38.1732005,-85.8636772,1.0,,POINT (-85.8636772 38.1732005),,,,,,,,,
10779,2024-12-17 05:00:00,7804 KENHURST DR,LOUISVILLE,40258,38.13892928,-85.87785353,14.0,,POINT (-85.87785353 38.13892928),,,,,,,,,
10780,2024-12-17 05:00:00,6808 FENWAY RD,LOUISVILLE,40258,38.13368377,-85.87755446,14.0,,POINT (-85.87755446 38.13368377),,,,,,,,,
10781,2024-12-17 05:00:00,10300 GOING CT,LOUISVILLE,40241,38.31039219,-85.55982679,17.0,,POINT (-85.55982679 38.31039219),,,,,,,,,
10782,2024-12-17 05:00:00,6832 FENWAY RD,LOUISVILLE,40258,38.13262476,-85.87836484,14.0,,POINT (-85.87836484 38.13262476),,,,,,,,,
10783,2024-12-17 05:00:00,100 DECLARATION DR,LOUISVILLE,40214,38.14482013,-85.77006284,13.0,,POINT (-85.77006284 38.14482013),,,,,,,,,
10784,2024-12-17 05:00:00,6303 SYDNEY RENEE WAY,LOUISVILLE,40272,38.07992315,-85.87701224,14.0,,POINT (-85.87701224 38.07992315),,,,,,,,,
10785,2024-12-17 05:00:00,17000 PITON WAY,LOUISVILLE,40245,38.26675668,-85.43385489,19.0,,POINT (-85.43385489 38.26675668),,,,,,,,,
10786,2024-12-17 05:00:00,17404 BRANCHSIDE PL,LOUISVILLE,40245,38.26460259,-85.44257897,19.0,,POINT (-85.44257897 38.26460259),,,,,,,,,
10787,2024-12-17 05:00:00,14201 WOODLAND RIDGE DR,LOUISVILLE,40245,38.25318934,-85.49096738,19.0,,POINT (-85.49096738 38.25318934),,,,,,,,,
10788,2024-12-17 05:00:00,7901 RIDGE PARK CT,LOUISVILLE,40258,38.14023643,-85.87549113,14.0,,POINT (-85.87549113 38.14023643),,,,,,,,,
10789,2024-12-17 05:00:00,7904 RIDGE PARK CT,LOUISVILLE,40258,38.14002952,-85.87605247,14.0,,POINT (-85.87605247 38.14002952),,,,,,,,,
10790,2024-12-17 05:00:00,600 TERMINAL DR,LOUISVILLE,40209,38.18616066,-85.7416372,21.0,REMAINDER OF CITY,POINT (-85.7416372 38.18616066),76.0,77.0,77.0,99.0,REMAINDER OF CITY,75749836.1734,58968.4545111,11407145.5742188,22885.955466666
10791,2024-12-17 05:00:00,7702 HERMITS RUN RD,LOUISVILLE,40291,38.1324263,-85.57017681,22.0,,POINT (-85.57017681 38.1324263),,,,,,,,,
10792,2024-12-17 05:00:00,10203 BACK RUN RD,LOUISVILLE,40299,38.10818206,-85.5222766,20.0,,POINT (-85.5222766 38.10818206),,,,,,,,,
10793,2024-12-17 05:00:00,1729 MCCLOSKEY AVE,LOUISVILLE,40210,38.22459104,-85.78722832,6.0,ALGONQUIN,POINT (-85.78722832 38.22459104),38.0,39.0,39.0,1.0,ALGONQUIN,33219618.2833,32962.9248289,5008709.046875,12793.4276295068
10794,2024-12-17 05:00:00,1523 BICKNELL AVE,LOUISVILLE,40215,38.18385557,-85.78937625,15.0,HAZELWOOD,POINT (-85.78937625 38.18385557),80.0,81.0,81.0,34.0,HAZELWOOD,17899405.0775,21086.5764636,2695716.7265625,8186.18074166458
10795,2024-12-17 05:00:00,2100 OSAGE AVE,LOUISVILLE,40210,38.23902297,-85.78848786,4.0,CALIFORNIA,POINT (-85.78848786 38.23902297),16.0,17.0,17.0,14.0,CALIFORNIA,34280997.7634,24635.7794746,5171558.58984375,9562.54636869943
10796,2024-12-17 05:00:00,2112 DOGOON DR,LYNDON,40223,38.27581382,-85.56959645,17.0,,POINT (-85.56959645 38.27581382),,,,,,,,,
10797,2024-12-17 05:00:00,1534 GLENGARRY DR,LOUISVILLE,40118,38.1212542,-85.74220336,13.0,,POINT (-85.74220336 38.1212542),,,,,,,,,
10798,2024-12-17 05:00:00,6803 SYLVANIA NO 4 RD,LOUISVILLE,40258,38.15413144,-85.87502957,12.0,,POINT (-85.87502957 38.15413144),,,,,,,,,
10799,2024-12-17 05:00:00,1328 TYCOON WAY,LOUISVILLE,40213,38.20993484,-85.70206847,10.0,POPLAR LEVEL,POINT (-85.70206847 38.20993484),46.0,47.0,47.0,52.0,POPLAR LEVEL,33808981.0956,35940.9911517,5095783.77734375,13957.1709072282
10800,2024-12-17 05:00:00,4907 HOPEWELL RD,LOUISVILLE,40299,38.16758222,-85.50375806,20.0,,POINT (-85.50375806 38.16758222),,,,,,,,,
10801,2024-12-17 05:00:00,5805 ROUND HILL RD,GLENVIEW,40222,38.30474704,-85.64491922,16.0,,POINT (-85.64491922 38.30474704),,,,,,,,,
10802,2024-12-17 05:00:00,1632 ALGONQUIN PKY,LOUISVILLE,40210,38.22243835,-85.7858616,6.0,ALGONQUIN,POINT (-85.7858616 38.22243835),38.0,39.0,39.0,1.0,ALGONQUIN,33219618.2833,32962.9248289,5008709.046875,12793.4276295068
10803,2024-12-16 05:00:00,8803 NATIONAL TPKE,LOUISVILLE,40118,38.12279131,-85.74767964,13.0,,POINT (-85.74767964 38.12279131),,,,,,,,,
10804,2024-12-16 05:00:00,700 CENTRAL AVE,LOUISVILLE,40208,38.20415465,-85.77176682,15.0,SOUTH LOUISVILLE,POINT (-85.77176682 38.20415465),61.0,62.0,62.0,65.0,SOUTH LOUISVILLE,21600041.4937,22937.6143854,3255196.72265625,8903.94043985458
10805,2024-12-16 05:00:00,"5406 ANTLE DR, 111",LOUISVILLE,40229,38.0862553,-85.66513888,23.0,,POINT (-85.66513888 38.0862553),,,,,,,,,
10806,2024-12-16 05:00:00,1436 S SHELBY ST,LOUISVILLE,40217,38.22689115,-85.74195861,6.0,MERRIWETHER,POINT (-85.74195861 38.22689115),41.0,42.0,42.0,59.0,MERRIWETHER,7249307.96687,11794.2004598,1093042.73046875,4581.27289938313
10807,2024-12-16 05:00:00,6333 STRAWBERRY LN,LOUISVILLE,40214,38.16409603,-85.75851866,25.0,SOUTHLAND PARK,POINT (-85.75851866 38.16409603),88.0,89.0,89.0,66.0,SOUTHLAND PARK,19008090.658,17532.1468786,2861172.72265625,6805.45948915845
10808,2024-12-16 05:00:00,"1104 CHEROKEE RD, 1",LOUISVILLE,40204,38.23883266,-85.71962712,8.0,CHEROKEE TRIANGLE,POINT (-85.71962712 38.23883266),17.0,18.0,18.0,20.0,CHEROKEE TRIANGLE,27288229.1448,24982.7382953,4116574.99609375,9701.0128805024
10809,2024-12-16 05:00:00,"2109 VILLAGE DR, 3",LOUISVILLE,40205,38.22793668,-85.69416996,8.0,HIGHLANDS DOUGLASS,POINT (-85.69416996 38.22793668),36.0,37.0,37.0,37.0,HIGHLANDS DOUGLASS,17964144.5664,21338.6133251,2708966.01171875,8280.21130875887
10810,2024-12-16 05:00:00,"6305 MILLERS MEADOW DR, 101",LOUISVILLE,40229,38.11247246,-85.64395169,23.0,,POINT (-85.64395169 38.11247246),,,,,,,,,
10811,2024-12-16 05:00:00,"6318 MILLERS MEADOW DR, 101",LOUISVILLE,40229,38.11269489,-85.64281533,23.0,,POINT (-85.64281533 38.11269489),,,,,,,,,
10812,2024-12-16 05:00:00,9102 GLOVER LN,WESTWOOD,40242,38.28118279,-85.58315909,7.0,,POINT (-85.58315909 38.28118279),,,,,,,,,
10813,2024-12-16 05:00:00,3205 MALDON CT,LOUISVILLE,40216,38.17250495,-85.86390671,1.0,,POINT (-85.86390671 38.17250495),,,,,,,,,
10814,2024-12-16 05:00:00,3207 MALDON CT,LOUISVILLE,40216,38.17263642,-85.86429251,1.0,,POINT (-85.86429251 38.17263642),,,,,,,,,
10815,2024-12-16 05:00:00,3209 MALDON CT,LOUISVILLE,40216,38.17275185,-85.86444531,1.0,,POINT (-85.86444531 38.17275185),,,,,,,,,
10816,2024-12-16 05:00:00,5744 MALDON DR,LOUISVILLE,40216,38.17296389,-85.8641456,1.0,,POINT (-85.8641456 38.17296389),,,,,,,,,
10817,2024-12-16 05:00:00,5743 MALDON DR,LOUISVILLE,40216,38.1732005,-85.8636772,1.0,,POINT (-85.8636772 38.1732005),,,,,,,,,
10818,2024-12-16 05:00:00,8304 LAKE SUPERIOR DR,LOUISVILLE,40291,38.16324157,-85.6047844,24.0,,POINT (-85.6047844 38.16324157),,,,,,,,,
10819,2024-12-16 05:00:00,7006 URANUS DR,LOUISVILLE,40258,38.15117453,-85.85356626,12.0,,POINT (-85.85356626 38.15117453),,,,,,,,,
10820,2024-12-16 05:00:00,3226 POMEROY DR,LOUISVILLE,40220,38.20518185,-85.62514682,26.0,,POINT (-85.62514682 38.20518185),,,,,,,,,
10821,2024-12-16 05:00:00,"4809 SADDLEBROOK LN, 2",LOUISVILLE,40216,38.17812615,-85.84988433,1.0,,POINT (-85.84988433 38.17812615),,,,,,,,,
10822,2024-12-16 05:00:00,613 GHEENS AVE,LOUISVILLE,40214,38.16847988,-85.7752834,21.0,IROQUOIS,POINT (-85.7752834 38.16847988),87.0,88.0,88.0,40.0,IROQUOIS,11842680.5471,13812.6910067,1782853.48828125,5360.83816734473
10823,2024-12-16 05:00:00,2102 WALLIE ANN CT,LOUISVILLE,40210,38.22081887,-85.79025557,3.0,ALGONQUIN,POINT (-85.79025557 38.22081887),38.0,39.0,39.0,1.0,ALGONQUIN,33219618.2833,32962.9248289,5008709.046875,12793.4276295068
10824,2024-12-16 05:00:00,9812 MELISSA DR,LOUISVILLE,40223,38.2566022,-85.57497104,18.0,,POINT (-85.57497104 38.2566022),,,,,,,,,
10825,2024-12-16 05:00:00,6510 GLENRIDGE PARK PL,NORTHFIELD,40222,38.28530497,-85.62979963,7.0,,POINT (-85.62979963 38.28530497),,,,,,,,,
10826,2024-12-16 05:00:00,2015 GARDINER LN,LOUISVILLE,40205,38.21071062,-85.67755118,8.0,GARDINER LANE,POINT (-85.67755118 38.21071062),59.0,60.0,60.0,29.0,GARDINER LANE,8277513.92209,12872.5143707,1247744.6015625,4998.8782619157
10827,2024-12-16 05:00:00,4514 EPINAY CT,LOUISVILLE,40272,38.11891493,-85.84280573,12.0,,POINT (-85.84280573 38.11891493),,,,,,,,,
10828,2024-12-16 05:00:00,102 N CRESTMOOR AVE,LOUISVILLE,40206,38.25492054,-85.67429477,9.0,CRESCENT HILL,POINT (-85.67429477 38.25492054),6.0,7.0,7.0,25.0,CRESCENT HILL,53000666.3014,35485.1338797,7998139.43359375,13773.826310504
10829,2024-12-15 05:00:00,"1935 GARDINER LN, 80",LOUISVILLE,40205,38.20906495,-85.68153902,8.0,HAYFIELD DUNDEE,POINT (-85.68153902 38.20906495),60.0,61.0,61.0,33.0,HAYFIELD DUNDEE,16435765.2403,16322.3177488,2477163.3515625,6337.23248303272
10830,2024-12-15 05:00:00,6001 WAGRAM WAY,GLENVIEW HILLS,40222,38.29398313,-85.63850738,16.0,,POINT (-85.63850738 38.29398313),,,,,,,,,
10831,2024-12-14 05:00:00,3911 VERMONT AVE,LOUISVILLE,40211,38.25672925,-85.81609069,5.0,SHAWNEE,POINT (-85.81609069 38.25672925),2.0,3.0,3.0,62.0,SHAWNEE,59953850.1745,34088.0570548,9049049.28515625,13244.602998434
10832,2024-12-14 05:00:00,1748 W GAULBERT AVE,LOUISVILLE,40210,38.22719126,-85.78771202,6.0,ALGONQUIN,POINT (-85.78771202 38.22719126),38.0,39.0,39.0,1.0,ALGONQUIN,33219618.2833,32962.9248289,5008709.046875,12793.4276295068
10833,2024-12-13 05:00:00,541 INDUSTRY RD,LOUISVILLE,40208,38.21924914,-85.7704307,6.0,ALGONQUIN,POINT (-85.7704307 38.21924914),38.0,39.0,39.0,1.0,ALGONQUIN,33219618.2833,32962.9248289,5008709.046875,12793.4276295068
10834,2024-12-13 05:00:00,4523 MEADOWLARK MANOR LN,LOUISVILLE,40245,38.30444037,-85.53240009,17.0,,POINT (-85.53240009 38.30444037),,,,,,,,,
10835,2024-12-13 05:00:00,4500 BISHOP LN,WATTERSON PARK,40218,38.19519753,-85.68889929,10.0,,POINT (-85.68889929 38.19519753),,,,,,,,,
10836,2024-12-13 05:00:00,3203 MALDON CT,LOUISVILLE,40216,38.17250495,-85.86390671,1.0,,POINT (-85.86390671 38.17250495),,,,,,,,,
10837,2024-12-13 05:00:00,6808 CAPELLA LN,LOUISVILLE,40258,38.15349934,-85.87373723,12.0,,POINT (-85.87373723 38.15349934),,,,,,,,,
10838,2024-12-13 05:00:00,3916 GILMAN AVE,ST MATTHEWS,40207,38.25755877,-85.65790421,9.0,,POINT (-85.65790421 38.25755877),,,,,,,,,
10839,2024-12-13 05:00:00,17025 PRESERVE POINTE DR,LOUISVILLE,40245,38.24546385,-85.44745111,19.0,,POINT (-85.44745111 38.24546385),,,,,,,,,
10840,2024-12-13 05:00:00,5607 POPLAR LAKES LN,LOUISVILLE,40299,38.16785682,-85.5415053,20.0,,POINT (-85.5415053 38.16785682),,,,,,,,,
10841,2024-12-13 05:00:00,6515 RIDGE CLIFF RD,HOLLOW CREEK,40228,38.15290994,-85.6279259,23.0,,POINT (-85.6279259 38.15290994),,,,,,,,,
10842,2024-12-13 05:00:00,7806 GLASER LN,LOUISVILLE,40228,38.1447159,-85.61648599,23.0,,POINT (-85.61648599 38.1447159),,,,,,,,,
10843,2024-12-13 05:00:00,5505 BAYWOOD DR,NOT IN JEFF CO,40014,38.32327638,-85.53418227,0.0,,POINT (-85.53418227 38.32327638),,,,,,,,,
10844,2024-12-13 05:00:00,"112 WOOD RD, B",LYNDON,40222,38.24963746,-85.59829076,18.0,,POINT (-85.59829076 38.24963746),,,,,,,,,
10845,2024-12-13 05:00:00,9910 OMAR KHAYYAM BLVD,LOUISVILLE,40272,38.11349171,-85.87373304,14.0,,POINT (-85.87373304 38.11349171),,,,,,,,,
10846,2024-12-13 05:00:00,1585 BAXTER AVE,LOUISVILLE,40205,38.2268802,-85.71350195,8.0,DEER PARK,POINT (-85.71350195 38.2268802),37.0,38.0,38.0,26.0,DEER PARK,13693682.8636,16675.6430309,2064857.953125,6473.3467571463
10847,2024-12-13 05:00:00,11309 BINFORD CT,LOUISVILLE,40291,38.14132584,-85.5628168,22.0,,POINT (-85.5628168 38.14132584),,,,,,,,,
10848,2024-12-13 05:00:00,8328 CROYDON CIR,HURSTBOURNE,40222,38.24181722,-85.59858566,18.0,,POINT (-85.59858566 38.24181722),,,,,,,,,
10849,2024-12-13 05:00:00,7209 ORCHARD LAKE BLVD,LOUISVILLE,40218,38.19045176,-85.62029141,2.0,,POINT (-85.62029141 38.19045176),,,,,,,,,
10850,2024-12-13 05:00:00,3203 TEAKWOOD CIR,LOUISVILLE,40216,38.18584304,-85.84928952,1.0,,POINT (-85.84928952 38.18584304),,,,,,,,,
10851,2024-12-13 05:00:00,2208 PLANTATION DR,LOUISVILLE,40216,38.21810419,-85.80062501,3.0,,POINT (-85.80062501 38.21810419),,,,,,,,,
10852,2024-12-13 05:00:00,1320 N BECKLEY STATION RD,LOUISVILLE,40245,38.2542027,-85.47504054,19.0,,POINT (-85.47504054 38.2542027),,,,,,,,,
10853,2024-12-13 05:00:00,17004 PERSIMMON WOOD TRL,LOUISVILLE,40023,38.20272824,-85.43942424,20.0,,POINT (-85.43942424 38.20272824),,,,,,,,,
10854,2024-12-13 05:00:00,11204 BODLEY DR,LOUISVILLE,40223,38.28572196,-85.54302037,17.0,,POINT (-85.54302037 38.28572196),,,,,,,,,
10855,2024-12-13 05:00:00,10814 MEETING ST,LOUISVILLE,40059,38.32706209,-85.56736249,16.0,,POINT (-85.56736249 38.32706209),,,,,,,,,
10856,2024-12-13 05:00:00,3708 ROCK BAY DR,LOUISVILLE,40245,38.29293246,-85.50465309,19.0,,POINT (-85.50465309 38.29293246),,,,,,,,,
10857,2024-12-13 05:00:00,8108 REGENCY WOODS WAY,LOUISVILLE,40220,38.22297847,-85.60605017,18.0,,POINT (-85.60605017 38.22297847),,,,,,,,,
10858,2024-12-13 05:00:00,1315 S BROOK ST,LOUISVILLE,40208,38.23100752,-85.75410409,6.0,OLD LOUISVILLE,POINT (-85.75410409 38.23100752),21.0,22.0,22.0,47.0,OLD LOUISVILLE,33395328.9862,31463.9283131,5036488.3671875,12223.3713536377
10859,2024-12-12 05:00:00,1609 BARDSTOWN RD,LOUISVILLE,40205,38.23047094,-85.70394257,8.0,BONNYCASTLE,POINT (-85.70394257 38.23047094),32.0,33.0,33.0,9.0,BONNYCASTLE,9091686.3946,16247.2645348,1371187.671875,6306.21674731534
10860,2024-12-12 05:00:00,4710 ALLMOND AVE,LOUISVILLE,40209,38.17914812,-85.75907281,21.0,SOUTHSIDE,POINT (-85.75907281 38.17914812),83.0,84.0,84.0,67.0,SOUTHSIDE,25638034.4241,28565.2760312,3860205.3984375,11092.7095503978
10861,2024-12-12 05:00:00,6008 BROWNSBORO PARK BLVD,LOUISVILLE,40207,38.28136249,-85.63891055,16.0,,POINT (-85.63891055 38.28136249),,,,,,,,,
10862,2024-12-12 05:00:00,"6310 MILLERS MEADOW DR, 101",LOUISVILLE,40229,38.11230758,-85.64323023,23.0,,POINT (-85.64323023 38.11230758),,,,,,,,,
10863,2024-12-12 05:00:00,833 E BURNETT AVE,LOUISVILLE,40217,38.22415657,-85.74085893,15.0,SCHNITZELBURG,POINT (-85.74085893 38.22415657),40.0,41.0,41.0,61.0,SCHNITZELBURG,16157895.342,16521.9569405,2436124.69140625,6418.43383454608
10864,2024-12-12 05:00:00,602 SOUTHVIEW DR,WINDY HILLS,40207,38.27525828,-85.63387897,7.0,,POINT (-85.63387897 38.27525828),,,,,,,,,
10865,2024-12-12 05:00:00,1062 CHEROKEE RD,LOUISVILLE,40204,38.23950604,-85.7206967,8.0,CHEROKEE TRIANGLE,POINT (-85.7206967 38.23950604),17.0,18.0,18.0,20.0,CHEROKEE TRIANGLE,27288229.1448,24982.7382953,4116574.99609375,9701.0128805024
10866,2024-12-12 05:00:00,1402 WOODPARK CT,LOUISVILLE,40245,38.25449391,-85.44814597,19.0,,POINT (-85.44814597 38.25449391),,,,,,,,,
10867,2024-12-12 05:00:00,1425 S 3RD ST,LOUISVILLE,40208,38.22803434,-85.75947639,6.0,OLD LOUISVILLE,POINT (-85.75947639 38.22803434),21.0,22.0,22.0,47.0,OLD LOUISVILLE,33395328.9862,31463.9283131,5036488.3671875,12223.3713536377
10868,2024-12-12 05:00:00,2407 FARNSLEY RD,SHIVELY,40216,38.20340219,-85.82891434,3.0,,POINT (-85.82891434 38.20340219),,,,,,,,,
10869,2024-12-12 05:00:00,6208 STRAWBERRY LN,LOUISVILLE,40214,38.16591029,-85.75132332,25.0,SOUTHLAND PARK,POINT (-85.75132332 38.16591029),88.0,89.0,89.0,66.0,SOUTHLAND PARK,19008090.658,17532.1468786,2861172.72265625,6805.45948915845
10870,2024-12-12 05:00:00,2321 S 36TH ST,LOUISVILLE,40211,38.22253279,-85.81524085,1.0,PARK DUVALLE,POINT (-85.81524085 38.22253279),33.0,34.0,34.0,48.0,PARK DUVALLE,25371006.2933,22847.021966,3825948.40234375,8870.67181936136
10871,2024-12-12 05:00:00,4807 LAWRIE LN,LOUISVILLE,40214,38.17311473,-85.79241258,15.0,IROQUOIS PARK,POINT (-85.79241258 38.17311473),86.0,87.0,87.0,41.0,IROQUOIS PARK,38241372.1839,26250.9881759,5756227.72265625,10188.4029152793
10872,2024-12-12 05:00:00,2100 FOREST POINTE LN,LOUISVILLE,40245,38.26567218,-85.47532823,19.0,,POINT (-85.47532823 38.26567218),,,,,,,,,
10873,2024-12-12 05:00:00,"2073 DOUGLASS BLVD, 3",LOUISVILLE,40205,38.22624281,-85.69150123,8.0,HIGHLANDS DOUGLASS,POINT (-85.69150123 38.22624281),36.0,37.0,37.0,37.0,HIGHLANDS DOUGLASS,17964144.5664,21338.6133251,2708966.01171875,8280.21130875887
10874,2024-12-12 05:00:00,7131 CANE RUN RD,LOUISVILLE,40258,38.1483108,-85.89576208,12.0,,POINT (-85.89576208 38.1483108),,,,,,,,,
10875,2024-12-12 05:00:00,5107 KEEGAN WAY,LOUISVILLE,40291,38.17297477,-85.573367,20.0,,POINT (-85.573367 38.17297477),,,,,,,,,
10876,2024-12-12 05:00:00,643 S 39TH ST,LOUISVILLE,40211,38.25328186,-85.81597978,5.0,SHAWNEE,POINT (-85.81597978 38.25328186),2.0,3.0,3.0,62.0,SHAWNEE,59953850.1745,34088.0570548,9049049.28515625,13244.602998434
10877,2024-12-11 05:00:00,9131 FERN CREEK RD,LOUISVILLE,40291,38.15770891,-85.59211645,22.0,,POINT (-85.59211645 38.15770891),,,,,,,,,
10878,2024-12-11 05:00:00,11205 KENDALTON PL,FINCASTLE,40241,38.30568108,-85.54157151,17.0,,POINT (-85.54157151 38.30568108),,,,,,,,,
10879,2024-12-11 05:00:00,"3899 PRODUCE RD, 109",LOUISVILLE,40218,38.18165792,-85.69069978,10.0,,POINT (-85.69069978 38.18165792),,,,,,,,,
10880,2024-12-11 05:00:00,3214 MALDON CT,LOUISVILLE,40216,38.1726528,-85.86484899,1.0,,POINT (-85.86484899 38.1726528),,,,,,,,,
10881,2024-12-11 05:00:00,602 SOUTHVIEW DR,WINDY HILLS,40207,38.27525828,-85.63387897,7.0,,POINT (-85.63387897 38.27525828),,,,,,,,,
10882,2024-12-11 05:00:00,620 STIVERS RD,LOUISVILLE,40207,38.22762034,-85.74023456,15.0,SCHNITZELBURG,POINT (-85.74023456 38.22762034),40.0,41.0,41.0,61.0,SCHNITZELBURG,16157895.342,16521.9569405,2436124.69140625,6418.43383454608
10883,2024-12-11 05:00:00,"4700 VALLA RD, 108",LOUISVILLE,40213,38.175452,-85.68904036,2.0,,POINT (-85.68904036 38.175452),,,,,,,,,
10884,2024-12-11 05:00:00,5214 MONACO DR,LOUISVILLE,40219,38.14029037,-85.66334107,24.0,,POINT (-85.66334107 38.14029037),,,,,,,,,
10885,2024-12-11 05:00:00,2910 YORKSHIRE BLVD,LOUISVILLE,40220,38.22278349,-85.62992645,26.0,HIKES POINT,POINT (-85.62992645 38.22278349),35.0,36.0,36.0,38.0,HIKES POINT,24955231.3045,35065.0187982,3762858.609375,13616.4152736924
10886,2024-12-11 05:00:00,1901 ALFRESCO PL,LOUISVILLE,40205,38.22510808,-85.70061752,8.0,DEER PARK,POINT (-85.70061752 38.22510808),37.0,38.0,38.0,26.0,DEER PARK,13693682.8636,16675.6430309,2064857.953125,6473.3467571463
10887,2024-12-11 05:00:00,2213 HALE AVE,LOUISVILLE,40210,38.2386657,-85.7908425,4.0,CALIFORNIA,POINT (-85.7908425 38.2386657),16.0,17.0,17.0,14.0,CALIFORNIA,34280997.7634,24635.7794746,5171558.58984375,9562.54636869943
10888,2024-12-11 05:00:00,14627 INSPIRATION CT,LOUISVILLE,40245,38.23083345,-85.49555157,11.0,,POINT (-85.49555157 38.23083345),,,,,,,,,
10889,2024-12-11 05:00:00,1519 LARCHMONT AVE,LOUISVILLE,40215,38.21340299,-85.78269267,3.0,TAYLOR BERRY,POINT (-85.78269267 38.21340299),53.0,54.0,54.0,69.0,TAYLOR BERRY,28828779.992,27984.0394528,4344772.78125,10863.9016493254
10890,2024-12-11 05:00:00,3203 BROECK POINTE CIR,BROECK POINTE,40241,38.29647497,-85.58606535,17.0,,POINT (-85.58606535 38.29647497),,,,,,,,,
10891,2024-12-11 05:00:00,5101 ELEGANT ECHO DR,LOUISVILLE,40241,38.31515842,-85.54479821,17.0,,POINT (-85.54479821 38.31515842),,,,,,,,,
10892,2024-12-10 05:00:00,527 W JEFFERSON ST,LOUISVILLE,40202,38.25457441,-85.75940809,4.0,CENTRAL BUSINESS DISTRICT,POINT (-85.75940809 38.25457441),7.0,8.0,8.0,17.0,CENTRAL BUSINESS DISTRICT,33029827.6262,27923.7528072,4984184.98046875,10844.9806632446
10893,2024-12-10 05:00:00,3001 CRITTENDEN DR,LOUISVILLE,40209,38.20093974,-85.74974936,21.0,FAIRGROUNDS,POINT (-85.74974936 38.20093974),67.0,68.0,68.0,28.0,FAIRGROUNDS,30170019.8609,32315.6877911,4545855.6796875,12540.1351282908
10894,2024-12-10 05:00:00,3001 CRITTENDEN DR,LOUISVILLE,40209,38.20093974,-85.74974936,21.0,FAIRGROUNDS,POINT (-85.74974936 38.20093974),67.0,68.0,68.0,28.0,FAIRGROUNDS,30170019.8609,32315.6877911,4545855.6796875,12540.1351282908
10895,2024-12-10 05:00:00,313 W MARKET ST,LOUISVILLE,40202,38.25542778,-85.75572955,4.0,CENTRAL BUSINESS DISTRICT,POINT (-85.75572955 38.25542778),7.0,8.0,8.0,17.0,CENTRAL BUSINESS DISTRICT,33029827.6262,27923.7528072,4984184.98046875,10844.9806632446
10896,2024-12-10 05:00:00,313 W MARKET ST,LOUISVILLE,40202,38.25542778,-85.75572955,4.0,CENTRAL BUSINESS DISTRICT,POINT (-85.75572955 38.25542778),7.0,8.0,8.0,17.0,CENTRAL BUSINESS DISTRICT,33029827.6262,27923.7528072,4984184.98046875,10844.9806632446
10897,2024-12-10 05:00:00,4121 ALGONQUIN PKY,LOUISVILLE,40211,38.2273035,-85.82420134,1.0,REMAINDER OF CITY,POINT (-85.82420134 38.2273035),27.0,28.0,28.0,99.0,REMAINDER OF CITY,16634416.4497,20715.9548922,2508764.21484375,8044.79344450779
10898,2024-12-10 05:00:00,8101 BLUE LICK RD,LOUISVILLE,40219,38.13266253,-85.68529101,24.0,,POINT (-85.68529101 38.13266253),,,,,,,,,
10899,2024-12-10 05:00:00,151 CHENOWETH LN,ST MATTHEWS,40207,38.2558208,-85.65739684,9.0,,POINT (-85.65739684 38.2558208),,,,,,,,,
10900,2024-12-10 05:00:00,10607 HOBBS STATION RD,LOUISVILLE,40223,38.25827307,-85.55643254,18.0,,POINT (-85.55643254 38.25827307),,,,,,,,,
10901,2024-12-10 05:00:00,3800 BARDSTOWN RD,LOUISVILLE,40218,38.19532225,-85.65674606,10.0,,POINT (-85.65674606 38.19532225),,,,,,,,,
10902,2024-12-10 05:00:00,404 VILLAGE LAKE DR,LOUISVILLE,40245,38.24766782,-85.49811081,19.0,,POINT (-85.49811081 38.24766782),,,,,,,,,
10903,2024-12-10 05:00:00,7131 CANE RUN RD,LOUISVILLE,40258,38.1483108,-85.89576208,12.0,,POINT (-85.89576208 38.1483108),,,,,,,,,
10904,2024-12-10 05:00:00,131 W OAK ST,LOUISVILLE,40203,38.2348051,-85.75674922,6.0,OLD LOUISVILLE,POINT (-85.75674922 38.2348051),21.0,22.0,22.0,47.0,OLD LOUISVILLE,33395328.9862,31463.9283131,5036488.3671875,12223.3713536377
10905,2024-12-10 05:00:00,9920 WINGED FOOT DR,LOUISVILLE,40223,38.25845015,-85.57352145,18.0,,POINT (-85.57352145 38.25845015),,,,,,,,,
10906,2024-12-10 05:00:00,2248 AMBOY DR,SHIVELY,40216,38.20305371,-85.82108441,3.0,,POINT (-85.82108441 38.20305371),,,,,,,,,
10907,2024-12-10 05:00:00,8913 BUTTERWEED CT,LOUISVILLE,40059,38.32813897,-85.57079232,16.0,,POINT (-85.57079232 38.32813897),,,,,,,,,
10908,2024-12-10 05:00:00,7907 NOTTOWAY CIR,LOUISVILLE,40214,38.15832759,-85.80302909,12.0,,POINT (-85.80302909 38.15832759),,,,,,,,,
10909,2024-12-10 05:00:00,2715 VICTOR PL,LOUISVILLE,40206,38.25610944,-85.69361002,9.0,CRESCENT HILL,POINT (-85.69361002 38.25610944),6.0,7.0,7.0,25.0,CRESCENT HILL,53000666.3014,35485.1338797,7998139.43359375,13773.826310504
10910,2024-12-10 05:00:00,8209 SHEPHERDSVILLE RD,LOUISVILLE,40219,38.12956707,-85.66092667,23.0,,POINT (-85.66092667 38.12956707),,,,,,,,,
10911,2024-12-10 05:00:00,7249 HEATHERLY SQ,OLD BROWNSBORO PLACE,40242,38.287349,-85.61317134,7.0,,POINT (-85.61317134 38.287349),,,,,,,,,
10912,2024-12-10 05:00:00,2318 ACKERMAN CT,LOUISVILLE,40212,38.26072251,-85.78854835,5.0,PORTLAND,POINT (-85.78854835 38.26072251),1.0,2.0,2.0,53.0,PORTLAND,70098295.0941,43851.3346581,10582289.578125,17022.1730714797
10913,2024-12-10 05:00:00,10314 EASUM RD,LOUISVILLE,40299,38.16328058,-85.56283446,20.0,,POINT (-85.56283446 38.16328058),,,,,,,,,
10914,2024-12-10 05:00:00,10623 GLENMARY SPRINGS DR,LOUISVILLE,40291,38.12624283,-85.57789686,22.0,,POINT (-85.57789686 38.12624283),,,,,,,,,
10915,2024-12-10 05:00:00,"747 S 5TH ST, 13",LOUISVILLE,40203,38.24458012,-85.7601759,4.0,CENTRAL BUSINESS DISTRICT,POINT (-85.7601759 38.24458012),7.0,8.0,8.0,17.0,CENTRAL BUSINESS DISTRICT,33029827.6262,27923.7528072,4984184.98046875,10844.9806632446
10916,2024-12-10 05:00:00,3800 WOODMONT PARK LN,LOUISVILLE,40245,38.29058993,-85.48026709,19.0,,POINT (-85.48026709 38.29058993),,,,,,,,,
10917,2024-12-10 05:00:00,1651 RICHMOND DR,LOUISVILLE,40205,38.22163865,-85.70838854,8.0,DEER PARK,POINT (-85.70838854 38.22163865),37.0,38.0,38.0,26.0,DEER PARK,13693682.8636,16675.6430309,2064857.953125,6473.3467571463
10918,2024-12-10 05:00:00,2204 SPEED AVE,LOUISVILLE,40205,38.22988725,-85.69754723,8.0,HIGHLANDS DOUGLASS,POINT (-85.69754723 38.22988725),36.0,37.0,37.0,37.0,HIGHLANDS DOUGLASS,17964144.5664,21338.6133251,2708966.01171875,8280.21130875887
10919,2024-12-10 05:00:00,"3357 ARTERBURN AVE, B",LOUISVILLE,40206,38.25473849,-85.67198449,9.0,CRESCENT HILL,POINT (-85.67198449 38.25473849),6.0,7.0,7.0,25.0,CRESCENT HILL,53000666.3014,35485.1338797,7998139.43359375,13773.826310504
10920,2024-12-10 05:00:00,7804 SPRINGFARM GLEN RD,LOUISVILLE,40059,38.32288494,-85.60578251,16.0,,POINT (-85.60578251 38.32288494),,,,,,,,,
10921,2024-12-09 05:00:00,2112 DUNCAN ST,LOUISVILLE,40212,38.26209297,-85.78406718,5.0,PORTLAND,POINT (-85.78406718 38.26209297),1.0,2.0,2.0,53.0,PORTLAND,70098295.0941,43851.3346581,10582289.578125,17022.1730714797
10922,2024-12-09 05:00:00,3915 DIXIE HWY,SHIVELY,40216,38.19481068,-85.80586624,3.0,,POINT (-85.80586624 38.19481068),,,,,,,,,
10923,2024-12-09 05:00:00,10005 DAWSON HILL RD,LOUISVILLE,40299,38.10043448,-85.48818937,20.0,,POINT (-85.48818937 38.10043448),,,,,,,,,
10924,2024-12-09 05:00:00,"4124 FOREMAN LN, 6",LOUISVILLE,40219,38.12802699,-85.68440451,24.0,,POINT (-85.68440451 38.12802699),,,,,,,,,
10925,2024-12-09 05:00:00,501 WALLACE AVE,ST MATTHEWS,40207,38.25051041,-85.6557385,9.0,,POINT (-85.6557385 38.25051041),,,,,,,,,
10926,2024-12-09 05:00:00,100 W WITHERSPOON ST,LOUISVILLE,40202,38.25745663,-85.75222604,4.0,CENTRAL BUSINESS DISTRICT,POINT (-85.75222604 38.25745663),7.0,8.0,8.0,17.0,CENTRAL BUSINESS DISTRICT,33029827.6262,27923.7528072,4984184.98046875,10844.9806632446
10927,2024-12-09 05:00:00,305 OLD FARM RD,WINDY HILLS,40207,38.2691314,-85.63037839,7.0,,POINT (-85.63037839 38.2691314),,,,,,,,,
10928,2024-12-09 05:00:00,9722 CHAPEL HILL RD,LOUISVILLE,40229,38.10490345,-85.6671118,24.0,,POINT (-85.6671118 38.10490345),,,,,,,,,
10929,2024-12-09 05:00:00,17502 SHAKES CREEK DR,LOUISVILLE,40023,38.20044001,-85.43147407,20.0,,POINT (-85.43147407 38.20044001),,,,,,,,,
10930,2024-12-09 05:00:00,2602 LAMBORNE BLVD,LOUISVILLE,40272,38.11261708,-85.81139167,25.0,,POINT (-85.81139167 38.11261708),,,,,,,,,
10931,2024-12-09 05:00:00,11221 SEATONVILLE RD,LOUISVILLE,40291,38.13965407,-85.55021583,22.0,,POINT (-85.55021583 38.13965407),,,,,,,,,
10932,2024-12-09 05:00:00,"5505 LODEMA WAY, 3",LOUISVILLE,40219,38.16982111,-85.68509701,2.0,,POINT (-85.68509701 38.16982111),,,,,,,,,
10933,2024-12-09 05:00:00,"5905 PERMERLAND DR, 6",LOUISVILLE,40219,38.16268334,-85.69838255,2.0,,POINT (-85.69838255 38.16268334),,,,,,,,,
10934,2024-12-09 05:00:00,11813 SPRINGHILL GARDENS DR,ANCHORAGE,40223,38.27482774,-85.53131147,17.0,,POINT (-85.53131147 38.27482774),,,,,,,,,
10935,2024-12-09 05:00:00,"3809 CHAMBERLAIN LN, C",LOUISVILLE,40241,38.30323321,-85.55153473,17.0,,POINT (-85.55153473 38.30323321),,,,,,,,,
10936,2024-12-09 05:00:00,6804 SANDSTONE BLVD,LOUISVILLE,40219,38.15093707,-85.65247225,24.0,,POINT (-85.65247225 38.15093707),,,,,,,,,
10937,2024-12-09 05:00:00,1715 SONNE AVE,SHIVELY,40216,38.21331104,-85.79240342,3.0,,POINT (-85.79240342 38.21331104),,,,,,,,,
10938,2024-12-09 05:00:00,17311 CURRY BRANCH RD,LOUISVILLE,40245,38.26535488,-85.44528387,19.0,,POINT (-85.44528387 38.26535488),,,,,,,,,
10939,2024-12-09 05:00:00,13310 TENNIS BLVD,LOUISVILLE,40272,38.06393091,-85.90043999,14.0,,POINT (-85.90043999 38.06393091),,,,,,,,,
10940,2024-12-09 05:00:00,2102 OSAGE AVE,LOUISVILLE,40210,38.2390182,-85.78864838,4.0,CALIFORNIA,POINT (-85.78864838 38.2390182),16.0,17.0,17.0,14.0,CALIFORNIA,34280997.7634,24635.7794746,5171558.58984375,9562.54636869943
10941,2024-12-08 05:00:00,231 N 26TH ST,LOUISVILLE,40212,38.26318359,-85.7930772,5.0,PORTLAND,POINT (-85.7930772 38.26318359),1.0,2.0,2.0,53.0,PORTLAND,70098295.0941,43851.3346581,10582289.578125,17022.1730714797
10942,2024-12-08 05:00:00,"1247 S BROOK ST, 3",LOUISVILLE,40203,38.23269079,-85.75371886,6.0,OLD LOUISVILLE,POINT (-85.75371886 38.23269079),21.0,22.0,22.0,47.0,OLD LOUISVILLE,33395328.9862,31463.9283131,5036488.3671875,12223.3713536377
10943,2024-12-08 05:00:00,"1247 S BROOK ST, 1",LOUISVILLE,40203,38.23270993,-85.75371925,6.0,OLD LOUISVILLE,POINT (-85.75371925 38.23270993),21.0,22.0,22.0,47.0,OLD LOUISVILLE,33395328.9862,31463.9283131,5036488.3671875,12223.3713536377
10944,2024-12-06 05:00:00,8305 HURSTBOURNE POINTE DR,LOUISVILLE,40299,38.18343673,-85.60379182,26.0,,POINT (-85.60379182 38.18343673),,,,,,,,,
10945,2024-12-06 05:00:00,2120 LOWER HUNTERS TRCE,LOUISVILLE,40216,38.15728547,-85.84701622,12.0,,POINT (-85.84701622 38.15728547),,,,,,,,,
10946,2024-12-06 05:00:00,5001 S 3RD ST,LOUISVILLE,40214,38.17437349,-85.76701809,21.0,SOUTHSIDE,POINT (-85.76701809 38.17437349),83.0,84.0,84.0,67.0,SOUTHSIDE,25638034.4241,28565.2760312,3860205.3984375,11092.7095503978
10947,2024-12-06 05:00:00,335 W BROADWAY,LOUISVILLE,40202,38.24651876,-85.75800786,4.0,CENTRAL BUSINESS DISTRICT,POINT (-85.75800786 38.24651876),7.0,8.0,8.0,17.0,CENTRAL BUSINESS DISTRICT,33029827.6262,27923.7528072,4984184.98046875,10844.9806632446
10948,2024-12-06 05:00:00,1209 POLO RUN CT,LOUISVILLE,40245,38.25639376,-85.4250223,19.0,,POINT (-85.4250223 38.25639376),,,,,,,,,
10949,2024-12-06 05:00:00,4602 DOVE LAKE CT,LOUISVILLE,40299,38.18001238,-85.53262747,20.0,,POINT (-85.53262747 38.18001238),,,,,,,,,
10950,2024-12-06 05:00:00,6325 LIMEWOOD CIR,LOUISVILLE,40222,38.29186576,-85.63760138,16.0,,POINT (-85.63760138 38.29186576),,,,,,,,,
10951,2024-12-06 05:00:00,1739 W KENTUCKY ST,LOUISVILLE,40210,38.24220887,-85.78384942,4.0,CALIFORNIA,POINT (-85.78384942 38.24220887),16.0,17.0,17.0,14.0,CALIFORNIA,34280997.7634,24635.7794746,5171558.58984375,9562.54636869943
10952,2024-12-06 05:00:00,"2404 W JEFFERSON ST, 2",LOUISVILLE,40212,38.25737046,-85.79135389,5.0,RUSSELL,POINT (-85.79135389 38.25737046),8.0,9.0,9.0,58.0,RUSSELL,39120816.5583,30140.1113728,5903448.6171875,11696.3609495239
10953,2024-12-06 05:00:00,1804 MILLGATE RD,LYNDON,40223,38.27350781,-85.57631073,7.0,,POINT (-85.57631073 38.27350781),,,,,,,,,
10954,2024-12-06 05:00:00,6712 FALLEN LEAF CIR,LOUISVILLE,40241,38.2899295,-85.62340895,7.0,,POINT (-85.62340895 38.2899295),,,,,,,,,
10955,2024-12-06 05:00:00,1234 TEXAS AVE,LOUISVILLE,40204,38.22673473,-85.73275601,15.0,GERMANTOWN,POINT (-85.73275601 38.22673473),28.0,29.0,29.0,30.0,GERMANTOWN,16716542.6972,16709.3909748,2521095.1484375,6491.54705987597
10956,2024-12-06 05:00:00,1901 ALFRESCO PL,LOUISVILLE,40205,38.22510808,-85.70061752,8.0,DEER PARK,POINT (-85.70061752 38.22510808),37.0,38.0,38.0,26.0,DEER PARK,13693682.8636,16675.6430309,2064857.953125,6473.3467571463
10957,2024-12-06 05:00:00,10401 CHAMPIONSHIP CT,NOT IN JEFF CO,40059,38.33665013,-85.5503071,0.0,,POINT (-85.5503071 38.33665013),,,,,,,,,
10958,2024-12-05 05:00:00,4223 HOPEWELL RD,LOUISVILLE,40299,38.17993069,-85.50147602,20.0,,POINT (-85.50147602 38.17993069),,,,,,,,,
10959,2024-12-05 05:00:00,4016 PRESTON HWY,LOUISVILLE,40213,38.19416205,-85.72969627,21.0,PRESTONIA,POINT (-85.72969627 38.19416205),71.0,72.0,72.0,56.0,PRESTONIA,10395510.0456,15768.9130724,1566159.05859375,6117.3781568667
10960,2024-12-05 05:00:00,"6501 BROOK BEND WAY, 224",LOUISVILLE,40229,38.10328953,-85.64907982,23.0,,POINT (-85.64907982 38.10328953),,,,,,,,,
10961,2024-12-05 05:00:00,"1124 POWERHOUSE LN, 106",LYNDON,40242,38.26426254,-85.59790224,7.0,,POINT (-85.59790224 38.26426254),,,,,,,,,
10962,2024-12-05 05:00:00,"6661 DIXIE HWY, 8",LOUISVILLE,40258,38.15349275,-85.83509521,12.0,,POINT (-85.83509521 38.15349275),,,,,,,,,
10963,2024-12-05 05:00:00,"1903 RAMSER CT, 7",SHIVELY,40216,38.20551495,-85.80255654,3.0,,POINT (-85.80255654 38.20551495),,,,,,,,,
10964,2024-12-05 05:00:00,1230 LIBERTY BANK LN,HURSTBOURNE,40222,38.22809026,-85.57902707,18.0,,POINT (-85.57902707 38.22809026),,,,,,,,,
10965,2024-12-05 05:00:00,602 GATEHOUSE LN,DOUGLASS HILLS,40243,38.23949989,-85.55222416,18.0,,POINT (-85.55222416 38.23949989),,,,,,,,,
10966,2024-12-05 05:00:00,6501 FERNVIEW RD,LOUISVILLE,40291,38.15269418,-85.6091653,22.0,,POINT (-85.6091653 38.15269418),,,,,,,,,
10967,2024-12-05 05:00:00,1016 AUTUMN CREST LN,LOUISVILLE,40245,38.2440486,-85.4539636,19.0,,POINT (-85.4539636 38.2440486),,,,,,,,,
10968,2024-12-05 05:00:00,10207 BACK RUN RD,LOUISVILLE,40299,38.10732279,-85.52170638,20.0,,POINT (-85.52170638 38.10732279),,,,,,,,,
10969,2024-12-05 05:00:00,2509 PENNACOOK RD,LOUISVILLE,40214,38.15538962,-85.8037172,12.0,,POINT (-85.8037172 38.15538962),,,,,,,,,
10970,2024-12-05 05:00:00,4508 MANSLICK RD,LOUISVILLE,40216,38.18203748,-85.79984437,15.0,CLOVERLEAF,POINT (-85.79984437 38.18203748),81.0,82.0,82.0,24.0,CLOVERLEAF,20213041.9359,19107.5144213,3043897.98828125,7415.15452079604
10971,2024-12-05 05:00:00,5405 VALLEY PARK DR,LOUISVILLE,40299,38.17135874,-85.54036594,20.0,,POINT (-85.54036594 38.17135874),,,,,,,,,
10972,2024-12-05 05:00:00,5408 NAVAJO RD,INDIAN HILLS,40207,38.27412507,-85.65089604,16.0,,POINT (-85.65089604 38.27412507),,,,,,,,,
10973,2024-12-05 05:00:00,5520 KILLINUR DR,LOUISVILLE,40059,38.32711706,-85.55906413,16.0,,POINT (-85.55906413 38.32711706),,,,,,,,,
10974,2024-12-05 05:00:00,8415 BEREA DR,LOUISVILLE,40228,38.12303185,-85.60679773,23.0,,POINT (-85.60679773 38.12303185),,,,,,,,,
10975,2024-12-05 05:00:00,7438 APPLE MILL DR,LOUISVILLE,40228,38.13389502,-85.62512909,23.0,,POINT (-85.62512909 38.13389502),,,,,,,,,
10976,2024-12-05 05:00:00,3728 GREENWICH RD,LOUISVILLE,40218,38.20631036,-85.64304625,10.0,KLONDIKE,POINT (-85.64304625 38.20631036),63.0,64.0,64.0,44.0,KLONDIKE,22820490.3615,33271.2361591,3439068.91015625,12916.6732355087
10977,2024-12-05 05:00:00,3119 DUMESNIL ST,LOUISVILLE,40211,38.23756716,-85.80670719,1.0,PARKLAND,POINT (-85.80670719 38.23756716),15.0,16.0,16.0,50.0,PARKLAND,22678009.29,20146.2118772,3421051.3125,7828.16209912284
10978,2024-12-05 05:00:00,2741 FIELD AVE,LOUISVILLE,40206,38.25734814,-85.69294937,9.0,CRESCENT HILL,POINT (-85.69294937 38.25734814),6.0,7.0,7.0,25.0,CRESCENT HILL,53000666.3014,35485.1338797,7998139.43359375,13773.826310504
10979,2024-12-05 05:00:00,1233 PAYNE ST,LOUISVILLE,40204,38.24796988,-85.72623428,9.0,IRISH HILL,POINT (-85.72623428 38.24796988),10.0,11.0,11.0,39.0,IRISH HILL,11140517.7247,24365.0362039,1680962.49609375,9459.94482947965
10980,2024-12-05 05:00:00,1935 W MARKET ST,LOUISVILLE,40203,38.25836304,-85.78305515,5.0,PORTLAND,POINT (-85.78305515 38.25836304),1.0,2.0,2.0,53.0,PORTLAND,70098295.0941,43851.3346581,10582289.578125,17022.1730714797
10981,2024-12-05 05:00:00,8814 MOUNTAIN BROOK DR,LOUISVILLE,40272,38.1262583,-85.81321728,25.0,,POINT (-85.81321728 38.1262583),,,,,,,,,
10982,2024-12-05 05:00:00,2377 VALLEY VISTA RD,LOUISVILLE,40205,38.21676844,-85.69906208,8.0,BELKNAP,POINT (-85.69906208 38.21676844),49.0,50.0,50.0,7.0,BELKNAP,22028825.0551,21828.6029666,3321011.640625,8470.05997307152
10983,2024-12-04 05:00:00,8500 FIELD TRAILS CT,LOUISVILLE,40291,38.15072697,-85.60178639,22.0,,POINT (-85.60178639 38.15072697),,,,,,,,,
10984,2024-12-04 05:00:00,502 WOOD RD,LYNDON,40222,38.25598759,-85.60523857,18.0,,POINT (-85.60523857 38.25598759),,,,,,,,,
10985,2024-12-04 05:00:00,1004 S 1ST ST,LOUISVILLE,40203,38.23808945,-85.75515338,6.0,OLD LOUISVILLE,POINT (-85.75515338 38.23808945),21.0,22.0,22.0,47.0,OLD LOUISVILLE,33395328.9862,31463.9283131,5036488.3671875,12223.3713536377
10986,2024-12-04 05:00:00,2817 W KENTUCKY ST,LOUISVILLE,40211,38.24420596,-85.80088857,4.0,PARKLAND,POINT (-85.80088857 38.24420596),15.0,16.0,16.0,50.0,PARKLAND,22678009.29,20146.2118772,3421051.3125,7828.16209912284
10987,2024-12-04 05:00:00,500 W GAULBERT AVE,LOUISVILLE,40208,38.22469716,-85.7647559,6.0,UNIVERSITY,POINT (-85.7647559 38.22469716),44.0,45.0,45.0,71.0,UNIVERSITY,22759446.4023,32175.6858254,3430555.00390625,12504.9443629102
10988,2024-12-04 05:00:00,435 BOXLEY AVE,LOUISVILLE,40209,38.20586126,-85.75237845,15.0,UNIVERSITY,POINT (-85.75237845 38.20586126),44.0,45.0,45.0,71.0,UNIVERSITY,22759446.4023,32175.6858254,3430555.00390625,12504.9443629102
10989,2024-12-04 05:00:00,5310 MERCURY DR,LOUISVILLE,40258,38.15921572,-85.85489064,12.0,,POINT (-85.85489064 38.15921572),,,,,,,,,
10990,2024-12-04 05:00:00,4901 EXETER AVE,LOUISVILLE,40218,38.1800094,-85.66830521,2.0,,POINT (-85.66830521 38.1800094),,,,,,,,,
10991,2024-12-04 05:00:00,6000 BROWNSBORO RD,LOUISVILLE,40222,38.28367656,-85.62487204,7.0,,POINT (-85.62487204 38.28367656),,,,,,,,,
10992,2024-12-04 05:00:00,5799 FERN VALLEY RD,LOUISVILLE,40228,38.15641597,-85.65422176,2.0,,POINT (-85.65422176 38.15641597),,,,,,,,,
10993,2024-12-04 05:00:00,3827 TAYLORSVILLE RD,LOUISVILLE,40220,38.22063311,-85.63238598,26.0,REMAINDER OF CITY,POINT (-85.63238598 38.22063311),55.0,56.0,56.0,99.0,REMAINDER OF CITY,392710.572269,3687.45159107,59207.484375,1430.01516398474
10994,2024-12-04 05:00:00,637 E MARKET ST,LOUISVILLE,40202,38.25372864,-85.74025897,4.0,REMAINDER OF CITY,POINT (-85.74025897 38.25372864),11.0,12.0,12.0,99.0,REMAINDER OF CITY,3655507.7246,11702.7579079,551609.51953125,4542.21281761207
10995,2024-12-04 05:00:00,4910 OLDE CREEK WAY,PROSPECT,40059,38.32246021,-85.61375345,16.0,,POINT (-85.61375345 38.32246021),,,,,,,,,
10996,2024-12-04 05:00:00,6914 WYTHE HILL CIR,PROSPECT,40059,38.34917905,-85.61353048,16.0,,POINT (-85.61353048 38.34917905),,,,,,,,,
10997,2024-12-04 05:00:00,1021 NAVAHO PL,LOUISVILLE,40215,38.18850108,-85.77902277,21.0,BEECHMONT,POINT (-85.77902277 38.18850108),78.0,79.0,79.0,6.0,BEECHMONT,40279693.3847,29071.6030981,6066389.4921875,11283.411717426
10998,2024-12-04 05:00:00,5634 MAGUIRE RUN RD,LOUISVILLE,40291,38.17394059,-85.62737556,2.0,,POINT (-85.62737556 38.17394059),,,,,,,,,
10999,2024-12-04 05:00:00,3029 ELEANOR AVE,LOUISVILLE,40205,38.21180132,-85.67523525,8.0,GARDINER LANE,POINT (-85.67523525 38.21180132),59.0,60.0,60.0,29.0,GARDINER LANE,8277513.92209,12872.5143707,1247744.6015625,4998.8782619157
11000,2024-12-04 05:00:00,7211 MEADOW RIDGE DR,LOUISVILLE,40218,38.18852281,-85.62219498,2.0,,POINT (-85.62219498 38.18852281),,,,,,,,,
11001,2024-12-04 05:00:00,4204 SUNSET AVE,LOUISVILLE,40211,38.24225807,-85.8233149,5.0,CHICKASAW,POINT (-85.8233149 38.24225807),14.0,15.0,15.0,21.0,CHICKASAW,33929100.7113,26018.4352139,5118623.98046875,10101.9420361886
11002,2024-12-04 05:00:00,1719 BOLLING AVE,LOUISVILLE,40210,38.22910415,-85.78566915,6.0,PARK HILL,POINT (-85.78566915 38.22910415),29.0,30.0,30.0,49.0,PARK HILL,27999518.5955,23853.7955754,4222750.15625,9254.97217601144
11003,2024-12-04 05:00:00,4308 STONEMEADOW CT,LOUISVILLE,40218,38.19149565,-85.61645417,2.0,,POINT (-85.61645417 38.19149565),,,,,,,,,
11004,2024-12-04 05:00:00,4102 WOODMONT PARK LN,LOUISVILLE,40245,38.29182307,-85.4886911,19.0,,POINT (-85.4886911 38.29182307),,,,,,,,,
11005,2024-12-04 05:00:00,502 W FLORENCE AVE,LOUISVILLE,40215,38.19092712,-85.76860237,15.0,WYANDOTTE,POINT (-85.76860237 38.19092712),72.0,73.0,73.0,73.0,WYANDOTTE,15139954.1564,15983.6050635,2280937.27734375,6201.83487368185
11006,2024-12-04 05:00:00,2516 COTTONWOOD DR,PLANTATION,40242,38.28369434,-85.59234295,7.0,,POINT (-85.59234295 38.28369434),,,,,,,,,
11007,2024-12-04 05:00:00,5812 BRITTANY WOODS CIR,GLENVIEW,40222,38.29978816,-85.64106665,16.0,,POINT (-85.64106665 38.29978816),,,,,,,,,
11008,2024-12-04 05:00:00,2614 WHITTIER AVE,STRATHMOOR VILLAGE,40205,38.22289524,-85.67778667,8.0,,POINT (-85.67778667 38.22289524),50.0,51.0,51.0,0.0,,4924481.04285,11567.9474474,742459.4296875,4488.34187869979
11009,2024-12-04 05:00:00,5512 BILLTOWN RD,LOUISVILLE,40299,38.16431599,-85.56775779,22.0,,POINT (-85.56775779 38.16431599),,,,,,,,,
11010,2024-12-04 05:00:00,1363 S 2ND ST,LOUISVILLE,40208,38.23007678,-85.7574842,6.0,OLD LOUISVILLE,POINT (-85.7574842 38.23007678),21.0,22.0,22.0,47.0,OLD LOUISVILLE,33395328.9862,31463.9283131,5036488.3671875,12223.3713536377
11011,2024-12-04 05:00:00,4003 SARATOGA WOODS DR,LOUISVILLE,40299,38.18486747,-85.54028351,20.0,,POINT (-85.54028351 38.18486747),,,,,,,,,
11012,2024-12-03 05:00:00,1207 POLO RUN CT,LOUISVILLE,40245,38.25650335,-85.42523653,19.0,,POINT (-85.42523653 38.25650335),,,,,,,,,
11013,2024-12-03 05:00:00,909 STONEYKIRK DR,DOUGLASS HILLS,40223,38.23052699,-85.55966066,18.0,,POINT (-85.55966066 38.23052699),,,,,,,,,
11014,2024-12-03 05:00:00,17021 ASHBURTON DR,LOUISVILLE,40245,38.22868095,-85.47935009,11.0,,POINT (-85.47935009 38.22868095),,,,,,,,,
11015,2024-12-03 05:00:00,200 BURNSDALE RD,DOUGLASS HILLS,40243,38.24223944,-85.55587864,18.0,,POINT (-85.55587864 38.24223944),,,,,,,,,
11016,2024-12-03 05:00:00,17300 WISE OWL TRL,LOUISVILLE,40299,38.13499187,-85.45939171,20.0,,POINT (-85.45939171 38.13499187),,,,,,,,,
11017,2024-12-03 05:00:00,2628 FRANKFORT AVE,LOUISVILLE,40206,38.25417839,-85.69486884,9.0,CRESCENT HILL,POINT (-85.69486884 38.25417839),6.0,7.0,7.0,25.0,CRESCENT HILL,53000666.3014,35485.1338797,7998139.43359375,13773.826310504
11018,2024-12-03 05:00:00,5032 HAMES TRCE,LOUISVILLE,40291,38.1670404,-85.60733571,24.0,,POINT (-85.60733571 38.1670404),,,,,,,,,
11019,2024-12-03 05:00:00,12914 SHELBYVILLE RD,MIDDLETOWN,40243,38.24101811,-85.51436996,19.0,,POINT (-85.51436996 38.24101811),,,,,,,,,
11020,2024-12-03 05:00:00,1133 W BROADWAY,LOUISVILLE,40203,38.24792097,-85.77114281,4.0,RUSSELL,POINT (-85.77114281 38.24792097),8.0,9.0,9.0,58.0,RUSSELL,39120816.5583,30140.1113728,5903448.6171875,11696.3609495239
11021,2024-12-03 05:00:00,215 S HURSTBOURNE PKY,LOUISVILLE,40222,38.24293093,-85.57626994,18.0,,POINT (-85.57626994 38.24293093),,,,,,,,,
11022,2024-12-03 05:00:00,3424 ALLISON WAY,LOUISVILLE,40220,38.21392852,-85.63763377,26.0,AVONDALE MELBOURNE HEIGHTS,POINT (-85.63763377 38.21392852),47.0,48.0,48.0,4.0,AVONDALE MELBOURNE HEIGHTS,13508027.2506,17233.6880445,2036468.82421875,6689.29839833285
11023,2024-12-03 05:00:00,2513 POPLAR CREST RD,INDIAN HILLS,40207,38.29190062,-85.6648627,16.0,,POINT (-85.6648627 38.29190062),,,,,,,,,
11024,2024-12-03 05:00:00,3619 WHEELER AVE,LOUISVILLE,40215,38.19346811,-85.78815043,15.0,JACOBS,POINT (-85.78815043 38.19346811),73.0,74.0,74.0,42.0,JACOBS,19626688.5778,18136.1811959,2956695.69140625,7034.94806851568
11025,2024-12-03 05:00:00,1923 HURSTBOURNE CIR,HURSTBOURNE ACRES,40220,38.2187985,-85.58708465,11.0,,POINT (-85.58708465 38.2187985),,,,,,,,,
11026,2024-12-03 05:00:00,11807 SANDPIPER BROOK LN,LOUISVILLE,40229,38.08677877,-85.62009893,23.0,,POINT (-85.62009893 38.08677877),,,,,,,,,
11027,2024-12-03 05:00:00,8805 ABINGDON CT,LOUISVILLE,40258,38.12685794,-85.87186094,14.0,,POINT (-85.87186094 38.12685794),,,,,,,,,
11028,2024-12-03 05:00:00,10126 AUTUMN GARDENS WAY,LOUISVILLE,40229,38.09648926,-85.68717891,24.0,,POINT (-85.68717891 38.09648926),,,,,,,,,
11029,2024-12-03 05:00:00,10538 CLAYTON ALLEN BLVD,LOUISVILLE,40229,38.0919738,-85.65262796,23.0,,POINT (-85.65262796 38.0919738),,,,,,,,,
11030,2024-12-03 05:00:00,15306 HARBOUR TREE AVE,LOUISVILLE,40245,38.23615068,-85.4806144,11.0,,POINT (-85.4806144 38.23615068),,,,,,,,,
11031,2024-12-03 05:00:00,602 HILLROSE DR,MIDDLETOWN,40243,38.23328079,-85.53816933,19.0,,POINT (-85.53816933 38.23328079),,,,,,,,,
11032,2024-12-03 05:00:00,4302 SANCTUARY BLUFF LN,LOUISVILLE,40241,38.31015461,-85.62302921,16.0,,POINT (-85.62302921 38.31015461),,,,,,,,,
11033,2024-12-03 05:00:00,435 ROCKCREST WAY,LOUISVILLE,40245,38.24308871,-85.45149656,19.0,,POINT (-85.45149656 38.24308871),,,,,,,,,
11034,2024-12-02 05:00:00,1701 W MARKET ST,LOUISVILLE,40203,38.25789041,-85.7783809,5.0,PORTLAND,POINT (-85.7783809 38.25789041),1.0,2.0,2.0,53.0,PORTLAND,70098295.0941,43851.3346581,10582289.578125,17022.1730714797
11035,2024-12-02 05:00:00,6904 BEACHLAND BEACH RD,LOUISVILLE,40059,38.351719,-85.63493864,16.0,,POINT (-85.63493864 38.351719),,,,,,,,,
11036,2024-12-02 05:00:00,8540 CHASE RD,LOUISVILLE,40258,38.12836889,-85.85547355,14.0,,POINT (-85.85547355 38.12836889),,,,,,,,,
11037,2024-12-02 05:00:00,10020 CROOKED OAK WAY,LOUISVILLE,40291,38.10892747,-85.57337864,22.0,,POINT (-85.57337864 38.10892747),,,,,,,,,
11038,2024-12-02 05:00:00,12523 HEDGEAPPLE WAY,LOUISVILLE,40272,38.09590716,-85.88383812,14.0,,POINT (-85.88383812 38.09590716),,,,,,,,,
11039,2024-12-02 05:00:00,11808 SANDPIPER BROOK LN,LOUISVILLE,40229,38.08680915,-85.62055647,23.0,,POINT (-85.62055647 38.08680915),,,,,,,,,
11040,2024-12-02 05:00:00,3022 MEADOWVIEW CIR,MEADOWVIEW ESTATES,40220,38.22264747,-85.63485425,26.0,,POINT (-85.63485425 38.22264747),48.0,49.0,49.0,0.0,,1780381.334,5262.40845633,268437.47265625,2043.19776692644
11041,2024-12-02 05:00:00,3707 VALDOSTA AVE,LOUISVILLE,40218,38.19500317,-85.62028978,26.0,,POINT (-85.62028978 38.19500317),,,,,,,,,
11042,2024-12-02 05:00:00,2052 SHERWOOD AVE,LOUISVILLE,40205,38.23270986,-85.70562035,8.0,BONNYCASTLE,POINT (-85.70562035 38.23270986),32.0,33.0,33.0,9.0,BONNYCASTLE,9091686.3946,16247.2645348,1371187.671875,6306.21674731534
11043,2024-12-02 05:00:00,704 W EVELYN AVE,LOUISVILLE,40215,38.19646961,-85.77127487,15.0,WYANDOTTE,POINT (-85.77127487 38.19646961),72.0,73.0,73.0,73.0,WYANDOTTE,15139954.1564,15983.6050635,2280937.27734375,6201.83487368185
11044,2024-12-02 05:00:00,904 MULBERRY ST,LOUISVILLE,40217,38.22693299,-85.73988318,15.0,SCHNITZELBURG,POINT (-85.73988318 38.22693299),40.0,41.0,41.0,61.0,SCHNITZELBURG,16157895.342,16521.9569405,2436124.69140625,6418.43383454608
11045,2024-12-02 05:00:00,937 S CLAY ST,LOUISVILLE,40203,38.23846477,-85.74240833,4.0,SMOKETOWN JACKSON,POINT (-85.74240833 38.23846477),20.0,21.0,21.0,64.0,SMOKETOWN JACKSON,11034983.6131,13830.1607788,1664642.890625,5369.82622756759
11046,2024-12-02 05:00:00,4914 SWAPS LN,LOUISVILLE,40216,38.17042048,-85.8439167,1.0,,POINT (-85.8439167 38.17042048),,,,,,,,,
11047,2024-12-02 05:00:00,1300 OAKWOOD AVE,LOUISVILLE,40215,38.17664371,-85.78314889,15.0,IROQUOIS,POINT (-85.78314889 38.17664371),84.0,85.0,85.0,40.0,IROQUOIS,6569698.41971,12533.3638271,989260.4453125,4863.96525675296
11048,2024-12-02 05:00:00,10124 IVYBRIDGE CIR,LOUISVILLE,40241,38.30184485,-85.56476637,17.0,,POINT (-85.56476637 38.30184485),,,,,,,,,
11049,2024-12-02 05:00:00,"2918 BRINKEY WAY, 1",LOUISVILLE,40218,38.2078965,-85.64099831,10.0,KLONDIKE,POINT (-85.64099831 38.2078965),63.0,64.0,64.0,44.0,KLONDIKE,22820490.3615,33271.2361591,3439068.91015625,12916.6732355087
11050,2024-12-01 05:00:00,10401 CHAMPIONSHIP CT,NOT IN JEFF CO,40059,38.33665013,-85.5503071,0.0,,POINT (-85.5503071 38.33665013),,,,,,,,,
11051,2024-11-27 05:00:00,8803 NATIONAL TPKE,LOUISVILLE,40118,38.12279131,-85.74767964,13.0,,POINT (-85.74767964 38.12279131),,,,,,,,,
11052,2024-11-27 05:00:00,9037 FERN CREEK RD,LOUISVILLE,40291,38.15189828,-85.59373555,22.0,,POINT (-85.59373555 38.15189828),,,,,,,,,
11053,2024-11-27 05:00:00,805 S 31ST ST,LOUISVILLE,40211,38.24729009,-85.80357623,4.0,PARKLAND,POINT (-85.80357623 38.24729009),15.0,16.0,16.0,50.0,PARKLAND,22678009.29,20146.2118772,3421051.3125,7828.16209912284
11054,2024-11-27 05:00:00,7902 CYPRESS GREEN WAY,LOUISVILLE,40291,38.13993677,-85.59680629,22.0,,POINT (-85.59680629 38.13993677),,,,,,,,,
11055,2024-11-27 05:00:00,6706 STANA DR,LOUISVILLE,40258,38.15777483,-85.86933043,12.0,,POINT (-85.86933043 38.15777483),,,,,,,,,
11056,2024-11-27 05:00:00,"2430 MCKENDREE CT, 101",LOUISVILLE,40211,38.24826468,-85.79329331,4.0,CALIFORNIA,POINT (-85.79329331 38.24826468),16.0,17.0,17.0,14.0,CALIFORNIA,34280997.7634,24635.7794746,5171558.58984375,9562.54636869943
11057,2024-11-27 05:00:00,1226 S 32ND ST,LOUISVILLE,40211,38.23752001,-85.80738606,1.0,PARKLAND,POINT (-85.80738606 38.23752001),15.0,16.0,16.0,50.0,PARKLAND,22678009.29,20146.2118772,3421051.3125,7828.16209912284
11058,2024-11-27 05:00:00,665 S 43RD ST,LOUISVILLE,40211,38.25241104,-85.82340295,5.0,SHAWNEE,POINT (-85.82340295 38.25241104),2.0,3.0,3.0,62.0,SHAWNEE,59953850.1745,34088.0570548,9049049.28515625,13244.602998434
11059,2024-11-27 05:00:00,1302 GLENBROOK RD,ANCHORAGE,40223,38.26350206,-85.53233926,17.0,,POINT (-85.53233926 38.26350206),,,,,,,,,
11060,2024-11-27 05:00:00,3300 TRINITY RD,LOUISVILLE,40206,38.24684197,-85.66861619,9.0,ROCKCREEK LEXINGTON ROAD,POINT (-85.66861619 38.24684197),13.0,14.0,14.0,57.0,ROCKCREEK LEXINGTON ROAD,16702087.1916,34138.9403283,2519815.84375,13254.3351304708
11061,2024-11-27 05:00:00,1300 OAKWOOD AVE,LOUISVILLE,40215,38.17664371,-85.78314889,15.0,IROQUOIS,POINT (-85.78314889 38.17664371),84.0,85.0,85.0,40.0,IROQUOIS,6569698.41971,12533.3638271,989260.4453125,4863.96525675296
11062,2024-11-27 05:00:00,3037 BON AIR AVE,LOUISVILLE,40205,38.21906467,-85.66529286,8.0,HAWTHORNE,POINT (-85.66529286 38.21906467),51.0,52.0,52.0,32.0,HAWTHORNE,12244929.8576,25242.103319,1846019.04296875,9792.87012993187
11063,2024-11-27 05:00:00,1922 W MUHAMMAD ALI BLVD,LOUISVILLE,40203,38.25381604,-85.78346355,4.0,RUSSELL,POINT (-85.78346355 38.25381604),8.0,9.0,9.0,58.0,RUSSELL,39120816.5583,30140.1113728,5903448.6171875,11696.3609495239
11064,2024-11-26 05:00:00,7945 3RD STREET RD,LOUISVILLE,40214,38.12788301,-85.79388955,25.0,,POINT (-85.79388955 38.12788301),,,,,,,,,
11065,2024-11-26 05:00:00,5002 HAMES TRCE,LOUISVILLE,40291,38.16769788,-85.60817503,24.0,,POINT (-85.60817503 38.16769788),,,,,,,,,
11066,2024-11-26 05:00:00,1112 HIGHLAND AVE,LOUISVILLE,40204,38.23665678,-85.73187027,6.0,GERMANTOWN,POINT (-85.73187027 38.23665678),28.0,29.0,29.0,30.0,GERMANTOWN,16716542.6972,16709.3909748,2521095.1484375,6491.54705987597
11067,2024-11-26 05:00:00,5103 DREAMERS WAY,LOUISVILLE,40219,38.1467532,-85.66624793,24.0,,POINT (-85.66624793 38.1467532),,,,,,,,,
11068,2024-11-26 05:00:00,4615 ROSSMOOR DR,LOUISVILLE,40219,38.14779196,-85.67551588,24.0,,POINT (-85.67551588 38.14779196),,,,,,,,,
11069,2024-11-26 05:00:00,3900 PLYMOUTH RD,ST MATTHEWS,40207,38.24174319,-85.64595137,26.0,,POINT (-85.64595137 38.24174319),,,,,,,,,
11070,2024-11-26 05:00:00,11207 BEECH RD,ANCHORAGE,40223,38.25814621,-85.54562441,18.0,,POINT (-85.54562441 38.25814621),,,,,,,,,
11071,2024-11-26 05:00:00,2924 FIELD AVE,LOUISVILLE,40206,38.25781625,-85.68598916,9.0,CRESCENT HILL,POINT (-85.68598916 38.25781625),6.0,7.0,7.0,25.0,CRESCENT HILL,53000666.3014,35485.1338797,7998139.43359375,13773.826310504
11072,2024-11-26 05:00:00,1202 BENTON AVE,LOUISVILLE,40204,38.24299656,-85.72957809,8.0,HIGHLANDS,POINT (-85.72957809 38.24299656),24.0,25.0,25.0,36.0,HIGHLANDS,5083966.15036,9711.47821417,766907.765625,3771.90142172082
11073,2024-11-26 05:00:00,5302 CHASEWOOD PL,LOUISVILLE,40229,38.09566909,-85.66335294,23.0,,POINT (-85.66335294 38.09566909),,,,,,,,,
11074,2024-11-26 05:00:00,6800 TRANSYLVANIA AVE,LOUISVILLE,40059,38.33599356,-85.63096513,16.0,,POINT (-85.63096513 38.33599356),,,,,,,,,
11075,2024-11-26 05:00:00,11604 SUN DIAL CT,LOUISVILLE,40272,38.1110236,-85.88539027,14.0,,POINT (-85.88539027 38.1110236),,,,,,,,,
11076,2024-11-26 05:00:00,"5603 SHOREWOOD DR, 2",LOUISVILLE,40214,38.14552661,-85.77722026,25.0,AUBURNDALE,POINT (-85.77722026 38.14552661),90.0,91.0,91.0,2.0,AUBURNDALE,17071579.229,18911.0535626,2568647.03515625,7333.31814033276
11077,2024-11-25 05:00:00,15900 SHELBYVILLE RD,LOUISVILLE,40245,38.23479977,-85.45965528,11.0,,POINT (-85.45965528 38.23479977),,,,,,,,,
11078,2024-11-25 05:00:00,5230 RIVER RD,GLENVIEW,40222,38.31482371,-85.64775947,16.0,,POINT (-85.64775947 38.31482371),,,,,,,,,
11079,2024-11-25 05:00:00,7401 NEW LA GRANGE RD,ST MATTHEWS,40222,38.25222864,-85.61627606,7.0,,POINT (-85.61627606 38.25222864),,,,,,,,,
11080,2024-11-25 05:00:00,1327 BARDSTOWN RD,LOUISVILLE,40204,38.23500624,-85.71417316,8.0,CHEROKEE TRIANGLE,POINT (-85.71417316 38.23500624),17.0,18.0,18.0,20.0,CHEROKEE TRIANGLE,27288229.1448,24982.7382953,4116574.99609375,9701.0128805024
11081,2024-11-25 05:00:00,8212 SMYRNA PKY,LOUISVILLE,40228,38.12908414,-85.643109,23.0,,POINT (-85.643109 38.12908414),,,,,,,,,
11082,2024-11-25 05:00:00,205 POPE ST,LOUISVILLE,40206,38.2572038,-85.7162182,9.0,CLIFTON,POINT (-85.7162182 38.2572038),9.0,10.0,10.0,22.0,CLIFTON,19009888.5274,17779.8130048,2868707.6328125,6903.68857888366
11083,2024-11-25 05:00:00,6802 WOODHAVEN PLACE DR,LOUISVILLE,40228,38.16829715,-85.63965762,2.0,,POINT (-85.63965762 38.16829715),,,,,,,,,
11084,2024-11-25 05:00:00,307 N 32ND ST,LOUISVILLE,40212,38.26507682,-85.80394722,5.0,PORTLAND,POINT (-85.80394722 38.26507682),1.0,2.0,2.0,53.0,PORTLAND,70098295.0941,43851.3346581,10582289.578125,17022.1730714797
11085,2024-11-25 05:00:00,1507 CLARA AVE,LOUISVILLE,40215,38.20006969,-85.7868667,15.0,TAYLOR BERRY,POINT (-85.7868667 38.20006969),53.0,54.0,54.0,69.0,TAYLOR BERRY,28828779.992,27984.0394528,4344772.78125,10863.9016493254
11086,2024-11-25 05:00:00,115 PENNSYLVANIA AVE,LOUISVILLE,40206,38.25555746,-85.68273413,9.0,CRESCENT HILL,POINT (-85.68273413 38.25555746),6.0,7.0,7.0,25.0,CRESCENT HILL,53000666.3014,35485.1338797,7998139.43359375,13773.826310504
11087,2024-11-25 05:00:00,4505 WOLFSPRING DR,LOUISVILLE,40241,38.31694432,-85.60788363,16.0,,POINT (-85.60788363 38.31694432),,,,,,,,,
11088,2024-11-25 05:00:00,1910 WICKHAM WAY,LOUISVILLE,40223,38.27581056,-85.57924915,7.0,,POINT (-85.57924915 38.27581056),,,,,,,,,
11089,2024-11-25 05:00:00,879 MOLTER AVE,LOUISVILLE,40217,38.20826395,-85.73572955,10.0,AUDUBON,POINT (-85.73572955 38.20826395),57.0,58.0,58.0,3.0,AUDUBON,17327246.4621,22516.1622417,2611728.84375,8742.41704030239
11090,2024-11-25 05:00:00,2811 NEWBURG RD,LOUISVILLE,40205,38.20859544,-85.69305421,8.0,HAYFIELD DUNDEE,POINT (-85.69305421 38.20859544),60.0,61.0,61.0,33.0,HAYFIELD DUNDEE,16435765.2403,16322.3177488,2477163.3515625,6337.23248303272
11091,2024-11-25 05:00:00,1204 EVERETT AVE,LOUISVILLE,40204,38.23851837,-85.71611863,8.0,CHEROKEE TRIANGLE,POINT (-85.71611863 38.23851837),17.0,18.0,18.0,20.0,CHEROKEE TRIANGLE,27288229.1448,24982.7382953,4116574.99609375,9701.0128805024
11092,2024-11-25 05:00:00,7814 DONEGAL DR,LOUISVILLE,40219,38.13591298,-85.65329005,23.0,,POINT (-85.65329005 38.13591298),,,,,,,,,
11093,2024-11-25 05:00:00,511 E KENTUCKY ST,LOUISVILLE,40203,38.23772183,-85.74632782,4.0,SMOKETOWN JACKSON,POINT (-85.74632782 38.23772183),20.0,21.0,21.0,64.0,SMOKETOWN JACKSON,11034983.6131,13830.1607788,1664642.890625,5369.82622756759
11094,2024-11-25 05:00:00,6604 GABRIEL DR,LOUISVILLE,40258,38.15643629,-85.85490495,12.0,,POINT (-85.85490495 38.15643629),,,,,,,,,
11095,2024-11-25 05:00:00,12210 OLD SHELBYVILLE RD,MIDDLETOWN,40243,38.24389839,-85.52775264,19.0,,POINT (-85.52775264 38.24389839),,,,,,,,,
11096,2024-11-25 05:00:00,"3805 YARDLEY CT, 207",LOUISVILLE,40299,38.19194797,-85.60321939,26.0,,POINT (-85.60321939 38.19194797),,,,,,,,,
11097,2024-11-25 05:00:00,6300 WOLF PEN BRANCH RD,LOUISVILLE,40059,38.32507455,-85.62889914,16.0,,POINT (-85.62889914 38.32507455),,,,,,,,,
11098,2024-11-25 05:00:00,7800 HIDDEN OAK CT,NORWOOD,40222,38.25416517,-85.60907873,7.0,,POINT (-85.60907873 38.25416517),,,,,,,,,
11099,2024-11-25 05:00:00,6805 TOTTENHAM RD,WINDY HILLS,40207,38.26652933,-85.62742856,7.0,,POINT (-85.62742856 38.26652933),,,,,,,,,
11100,2024-11-25 05:00:00,7016 TERRY RD,LOUISVILLE,40258,38.14906147,-85.8707067,12.0,,POINT (-85.8707067 38.14906147),,,,,,,,,
11101,2024-11-25 05:00:00,7503 WESTPORT RD,GRAYMOOR/DEVONDALE,40222,38.27181613,-85.61366265,7.0,,POINT (-85.61366265 38.27181613),,,,,,,,,
11102,2024-11-25 05:00:00,732 S 15TH ST,LOUISVILLE,40210,38.24673472,-85.77705575,4.0,CALIFORNIA,POINT (-85.77705575 38.24673472),16.0,17.0,17.0,14.0,CALIFORNIA,34280997.7634,24635.7794746,5171558.58984375,9562.54636869943
11103,2024-11-25 05:00:00,12203 LUCAS LN,ANCHORAGE,40223,38.27738174,-85.52841859,17.0,,POINT (-85.52841859 38.27738174),,,,,,,,,
11104,2024-11-25 05:00:00,5749 MALDON DR,LOUISVILLE,40216,38.17331307,-85.86427174,1.0,,POINT (-85.86427174 38.17331307),,,,,,,,,
11105,2024-11-23 05:00:00,1413 EARL AVE,LOUISVILLE,40215,38.20590722,-85.78270208,3.0,TAYLOR BERRY,POINT (-85.78270208 38.20590722),53.0,54.0,54.0,69.0,TAYLOR BERRY,28828779.992,27984.0394528,4344772.78125,10863.9016493254
11106,2024-11-22 05:00:00,9616 LEOPOLD WOOD LOOP,LOUISVILLE,40118,38.10985443,-85.76148942,13.0,,POINT (-85.76148942 38.10985443),,,,,,,,,
11107,2024-11-22 05:00:00,4612 KNOPP AVE,LOUISVILLE,40213,38.14698139,-85.72730485,13.0,,POINT (-85.72730485 38.14698139),,,,,,,,,
11108,2024-11-22 05:00:00,3400 WILDERNESS TRL,LOUISVILLE,40299,38.18959814,-85.49135274,20.0,,POINT (-85.49135274 38.18959814),,,,,,,,,
11109,2024-11-22 05:00:00,10301 JEFFERSON HILL RD,LOUISVILLE,40118,38.10180777,-85.78163835,13.0,,POINT (-85.78163835 38.10180777),,,,,,,,,
11110,2024-11-22 05:00:00,1003 LONG RUN RD,LOUISVILLE,40245,38.24580566,-85.41930677,20.0,,POINT (-85.41930677 38.24580566),,,,,,,,,
11111,2024-11-22 05:00:00,2137 BELMONT RD,LOUISVILLE,40218,38.20490316,-85.66968131,10.0,BASHFORD MANOR,POINT (-85.66968131 38.20490316),65.0,66.0,66.0,5.0,BASHFORD MANOR,15474178.8013,19882.2634609,2331859.84765625,7715.49114865788
11112,2024-11-22 05:00:00,47 MOCKINGBIRD VALLEY DR,LOUISVILLE,40207,38.27390183,-85.67730871,16.0,,POINT (-85.67730871 38.27390183),,,,,,,,,
11113,2024-11-22 05:00:00,3513 SCHAFFNER DR,SHIVELY,40216,38.19645204,-85.82203752,3.0,,POINT (-85.82203752 38.19645204),,,,,,,,,
11114,2024-11-22 05:00:00,3134 DOGWOOD DR,LOUISVILLE,40220,38.21631374,-85.63988888,26.0,AVONDALE MELBOURNE HEIGHTS,POINT (-85.63988888 38.21631374),47.0,48.0,48.0,4.0,AVONDALE MELBOURNE HEIGHTS,13508027.2506,17233.6880445,2036468.82421875,6689.29839833285
11115,2024-11-22 05:00:00,5203 TERRACE GREEN CIR,LOUISVILLE,40218,38.17848167,-85.66357036,2.0,,POINT (-85.66357036 38.17848167),,,,,,,,,
11116,2024-11-22 05:00:00,6902 CASEY PL,LOUISVILLE,40229,38.09221781,-85.65072785,23.0,,POINT (-85.65072785 38.09221781),,,,,,,,,
11117,2024-11-22 05:00:00,9401 CORNFLOWER RD,LOUISVILLE,40272,38.11750384,-85.87265016,14.0,,POINT (-85.87265016 38.11750384),,,,,,,,,
11118,2024-11-22 05:00:00,5300 ALYSSUM CT,LOUISVILLE,40258,38.13985248,-85.85223188,14.0,,POINT (-85.85223188 38.13985248),,,,,,,,,
11119,2024-11-22 05:00:00,1407 DORIS DR,LOUISVILLE,40118,38.10961365,-85.74022407,13.0,,POINT (-85.74022407 38.10961365),,,,,,,,,
11120,2024-11-22 05:00:00,2106 CHEROKEE PKY,LOUISVILLE,40204,38.235234,-85.71190709,8.0,CHEROKEE TRIANGLE,POINT (-85.71190709 38.235234),17.0,18.0,18.0,20.0,CHEROKEE TRIANGLE,27288229.1448,24982.7382953,4116574.99609375,9701.0128805024
11121,2024-11-21 05:00:00,18702 WESTBOURNE GROVE DR,LOUISVILLE,40245,38.23637868,-85.41055228,20.0,,POINT (-85.41055228 38.23637868),,,,,,,,,
11122,2024-11-21 05:00:00,227 BUCKLAND TRCE,LOUISVILLE,40245,38.23846125,-85.44796874,19.0,,POINT (-85.44796874 38.23846125),,,,,,,,,
11123,2024-11-21 05:00:00,7603 OLD SALEM RD,BANCROFT,40242,38.28532283,-85.61399521,7.0,,POINT (-85.61399521 38.28532283),,,,,,,,,
11124,2024-11-21 05:00:00,3313 BROWNSBORO VISTA DR,BARBOURMEADE,40242,38.29786124,-85.59621443,17.0,,POINT (-85.59621443 38.29786124),,,,,,,,,
11125,2024-11-21 05:00:00,4352 ACCOMACK DR,LOUISVILLE,40241,38.30802385,-85.55147106,17.0,,POINT (-85.55147106 38.30802385),,,,,,,,,
11126,2024-11-21 05:00:00,11912 BERRY HILL RD,DOUGLASS HILLS,40243,38.23542012,-85.53632772,19.0,,POINT (-85.53632772 38.23542012),,,,,,,,,
11127,2024-11-21 05:00:00,11903 BERRY HILL RD,DOUGLASS HILLS,40243,38.2354863,-85.53772033,19.0,,POINT (-85.53772033 38.2354863),,,,,,,,,
11128,2024-11-21 05:00:00,407 BRUNER HILL DR,DOUGLASS HILLS,40243,38.23578654,-85.53965374,19.0,,POINT (-85.53965374 38.23578654),,,,,,,,,
11129,2024-11-21 05:00:00,502 BRUNER HILL DR,DOUGLASS HILLS,40243,38.23433629,-85.54026342,19.0,,POINT (-85.54026342 38.23433629),,,,,,,,,
11130,2024-11-21 05:00:00,405 BRUNER HILL DR,DOUGLASS HILLS,40243,38.23594608,-85.5397706,19.0,,POINT (-85.5397706 38.23594608),,,,,,,,,
11131,2024-11-21 05:00:00,4531 SHENANDOAH DR,FINCASTLE,40241,38.31040771,-85.54243464,17.0,,POINT (-85.54243464 38.31040771),,,,,,,,,
11132,2024-11-21 05:00:00,11420 RACE RD,LOUISVILLE,40291,38.11175707,-85.56529612,22.0,,POINT (-85.56529612 38.11175707),,,,,,,,,
11133,2024-11-21 05:00:00,1133 BLACKTHORN RD,MIDDLETOWN,40299,38.22655077,-85.52230722,19.0,,POINT (-85.52230722 38.22655077),,,,,,,,,
11134,2024-11-21 05:00:00,10712 SUNDERLAND RD,DOUGLASS HILLS,40243,38.24252074,-85.55683173,18.0,,POINT (-85.55683173 38.24252074),,,,,,,,,
11135,2024-11-21 05:00:00,310 BABE DR,LOUISVILLE,40118,38.1008026,-85.76793307,13.0,,POINT (-85.76793307 38.1008026),,,,,,,,,
11136,2024-11-21 05:00:00,12500 WESTPORT RD,LOUISVILLE,40245,38.30358449,-85.51925165,19.0,,POINT (-85.51925165 38.30358449),,,,,,,,,
11137,2024-11-21 05:00:00,201 N 25TH ST,LOUISVILLE,40212,38.26194362,-85.79087274,5.0,PORTLAND,POINT (-85.79087274 38.26194362),1.0,2.0,2.0,53.0,PORTLAND,70098295.0941,43851.3346581,10582289.578125,17022.1730714797
11138,2024-11-21 05:00:00,11902 OLD SHELBYVILLE RD,MIDDLETOWN,40243,38.24375528,-85.53446129,19.0,,POINT (-85.53446129 38.24375528),,,,,,,,,
11139,2024-11-21 05:00:00,2210 GRANGER RD,LOUISVILLE,40118,38.10085372,-85.72502304,13.0,,POINT (-85.72502304 38.10085372),,,,,,,,,
11140,2024-11-21 05:00:00,11098 COMPASS AVE,HERITAGE CREEK,40229,38.09940169,-85.61370098,22.0,,POINT (-85.61370098 38.09940169),,,,,,,,,
11141,2024-11-21 05:00:00,3810 CUTLER RD,LOUISVILLE,40219,38.13460862,-85.69177902,24.0,,POINT (-85.69177902 38.13460862),,,,,,,,,
11142,2024-11-21 05:00:00,423 SOUTHWESTERN PKY,LOUISVILLE,40212,38.25874336,-85.82372998,5.0,SHAWNEE,POINT (-85.82372998 38.25874336),2.0,3.0,3.0,62.0,SHAWNEE,59953850.1745,34088.0570548,9049049.28515625,13244.602998434
11143,2024-11-21 05:00:00,4402 BAY RUN CT,WORTHINGTON HILLS,40245,38.30696841,-85.5243915,17.0,,POINT (-85.5243915 38.30696841),,,,,,,,,
11144,2024-11-21 05:00:00,4122 RIEDLEY RD,LOUISVILLE,40216,38.20104238,-85.82819353,1.0,,POINT (-85.82819353 38.20104238),,,,,,,,,
11145,2024-11-21 05:00:00,1805 SPRING HILL DR,ANCHORAGE,40223,38.27115189,-85.54990309,17.0,,POINT (-85.54990309 38.27115189),,,,,,,,,
11146,2024-11-21 05:00:00,1270 S BROOK ST,LOUISVILLE,40203,38.23180624,-85.75434716,6.0,OLD LOUISVILLE,POINT (-85.75434716 38.23180624),21.0,22.0,22.0,47.0,OLD LOUISVILLE,33395328.9862,31463.9283131,5036488.3671875,12223.3713536377
11147,2024-11-21 05:00:00,3732 MAMARONECK RD,LOUISVILLE,40218,38.20685808,-85.64213963,10.0,KLONDIKE,POINT (-85.64213963 38.20685808),63.0,64.0,64.0,44.0,KLONDIKE,22820490.3615,33271.2361591,3439068.91015625,12916.6732355087
11148,2024-11-21 05:00:00,121 E AMHERST AVE,LOUISVILLE,40214,38.17548281,-85.76179002,21.0,SOUTHSIDE,POINT (-85.76179002 38.17548281),83.0,84.0,84.0,67.0,SOUTHSIDE,25638034.4241,28565.2760312,3860205.3984375,11092.7095503978
11149,2024-11-21 05:00:00,"11822 DUANE POINT CIR, 101",MIDDLETOWN,40243,38.23280266,-85.54030674,19.0,,POINT (-85.54030674 38.23280266),,,,,,,,,
11150,2024-11-21 05:00:00,4910 S 3RD ST,LOUISVILLE,40214,38.17625709,-85.76760021,21.0,BEECHMONT,POINT (-85.76760021 38.17625709),78.0,79.0,79.0,6.0,BEECHMONT,40279693.3847,29071.6030981,6066389.4921875,11283.411717426
11151,2024-11-21 05:00:00,1821 STEVENS AVE,LOUISVILLE,40205,38.22989743,-85.70967587,8.0,DEER PARK,POINT (-85.70967587 38.22989743),37.0,38.0,38.0,26.0,DEER PARK,13693682.8636,16675.6430309,2064857.953125,6473.3467571463
11152,2024-11-20 05:00:00,"7645 NATIONAL TPKE, 100",LOUISVILLE,40214,38.14414636,-85.74926873,13.0,,POINT (-85.74926873 38.14414636),,,,,,,,,
11153,2024-11-20 05:00:00,9607 LEOPOLD WOOD LOOP,LOUISVILLE,40118,38.11104951,-85.76004113,13.0,,POINT (-85.76004113 38.11104951),,,,,,,,,
11154,2024-11-20 05:00:00,10618 BLACK IRON RD,LOUISVILLE,40291,38.12027053,-85.56775093,22.0,,POINT (-85.56775093 38.12027053),,,,,,,,,
11155,2024-11-20 05:00:00,10602 BLACK IRON RD,LOUISVILLE,40291,38.1198632,-85.56553695,22.0,,POINT (-85.56553695 38.1198632),,,,,,,,,
11156,2024-11-20 05:00:00,10608 BLACK IRON RD,LOUISVILLE,40291,38.12010886,-85.56632878,22.0,,POINT (-85.56632878 38.12010886),,,,,,,,,
11157,2024-11-20 05:00:00,529 E BROADWAY,LOUISVILLE,40202,38.24540569,-85.74414766,4.0,PHOENIX HILL,POINT (-85.74414766 38.24540569),12.0,13.0,13.0,51.0,PHOENIX HILL,16257836.4316,19251.4323818,2453008.7578125,7471.6611487786
11158,2024-11-20 05:00:00,525 E BROADWAY,LOUISVILLE,40202,38.24541324,-85.74423487,4.0,PHOENIX HILL,POINT (-85.74423487 38.24541324),12.0,13.0,13.0,51.0,PHOENIX HILL,16257836.4316,19251.4323818,2453008.7578125,7471.6611487786
11159,2024-11-20 05:00:00,4014 RALPH AVE,LOUISVILLE,40211,38.21123792,-85.83594974,1.0,,POINT (-85.83594974 38.21123792),,,,,,,,,
11160,2024-11-20 05:00:00,6904 BEACHLAND BEACH RD,LOUISVILLE,40059,38.351719,-85.63493864,16.0,,POINT (-85.63493864 38.351719),,,,,,,,,
11161,2024-11-20 05:00:00,631 S 35TH ST,LOUISVILLE,40211,38.25260123,-85.80967118,5.0,SHAWNEE,POINT (-85.80967118 38.25260123),2.0,3.0,3.0,62.0,SHAWNEE,59953850.1745,34088.0570548,9049049.28515625,13244.602998434
11162,2024-11-20 05:00:00,2010 PATRICIA DR,LOUISVILLE,40272,38.10160736,-85.87956635,14.0,,POINT (-85.87956635 38.10160736),,,,,,,,,
11163,2024-11-19 05:00:00,9411 RIVER TRAIL DR,LOUISVILLE,40229,38.10780572,-85.65820158,24.0,,POINT (-85.65820158 38.10780572),,,,,,,,,
11164,2024-11-19 05:00:00,621 BRECKENRIDGE LN,ST MATTHEWS,40207,38.24319391,-85.64716671,26.0,,POINT (-85.64716671 38.24319391),,,,,,,,,
11165,2024-11-19 05:00:00,400 BLANKENBAKER PKY,DOUGLASS HILLS,40243,38.24014627,-85.5447008,19.0,,POINT (-85.5447008 38.24014627),,,,,,,,,
11166,2024-11-19 05:00:00,4225 SOUTHERN PKY,LOUISVILLE,40214,38.19283425,-85.76633207,21.0,WILDER PARK,POINT (-85.76633207 38.19283425),70.0,71.0,71.0,72.0,WILDER PARK,10325888.9888,14496.510209,1555753.0078125,5631.97304133555
11167,2024-11-19 05:00:00,6946 WYTHE HILL CIR,PROSPECT,40059,38.35104927,-85.61140038,16.0,,POINT (-85.61140038 38.35104927),,,,,,,,,
11168,2024-11-19 05:00:00,11901 BROOKMOOR DR,MIDDLETOWN,40243,38.23656249,-85.53772113,19.0,,POINT (-85.53772113 38.23656249),,,,,,,,,
11169,2024-11-19 05:00:00,"8605 SHELBYVILLE RD, 208",BELLEMEADE,40222,38.24853799,-85.59406216,18.0,,POINT (-85.59406216 38.24853799),,,,,,,,,
11170,2024-11-19 05:00:00,510 LAKE FOREST PKY,LOUISVILLE,40245,38.24804037,-85.48720587,19.0,,POINT (-85.48720587 38.24804037),,,,,,,,,
11171,2024-11-19 05:00:00,729 ELSMERE CIR,LOUISVILLE,40223,38.25478057,-85.57599005,18.0,,POINT (-85.57599005 38.25478057),,,,,,,,,
11172,2024-11-19 05:00:00,17406 CREEK RUN DR,LOUISVILLE,40245,38.24587084,-85.43306376,19.0,,POINT (-85.43306376 38.24587084),,,,,,,,,
11173,2024-11-19 05:00:00,163 WILTSHIRE AVE,ST MATTHEWS,40207,38.24959732,-85.65370658,9.0,,POINT (-85.65370658 38.24959732),,,,,,,,,
11174,2024-11-19 05:00:00,658 S 23RD ST,LOUISVILLE,40211,38.2501493,-85.78995599,4.0,RUSSELL,POINT (-85.78995599 38.2501493),8.0,9.0,9.0,58.0,RUSSELL,39120816.5583,30140.1113728,5903448.6171875,11696.3609495239
11175,2024-11-19 05:00:00,5805 BRITTANY VALLEY RD,LOUISVILLE,40222,38.29713747,-85.64249299,16.0,,POINT (-85.64249299 38.29713747),,,,,,,,,
11176,2024-11-19 05:00:00,3814 JEWELL AVE,LOUISVILLE,40212,38.26748791,-85.8119387,5.0,SHAWNEE,POINT (-85.8119387 38.26748791),2.0,3.0,3.0,62.0,SHAWNEE,59953850.1745,34088.0570548,9049049.28515625,13244.602998434
11177,2024-11-19 05:00:00,7807 WINDGATE DR,LOUISVILLE,40291,38.13957794,-85.56478599,22.0,,POINT (-85.56478599 38.13957794),,,,,,,,,
11178,2024-11-19 05:00:00,4955 S 3RD ST,LOUISVILLE,40214,38.17489629,-85.76696949,21.0,SOUTHSIDE,POINT (-85.76696949 38.17489629),83.0,84.0,84.0,67.0,SOUTHSIDE,25638034.4241,28565.2760312,3860205.3984375,11092.7095503978
11179,2024-11-19 05:00:00,2817 RIO RITA AVE,LOUISVILLE,40220,38.21025953,-85.65139604,26.0,BON AIR,POINT (-85.65139604 38.21025953),56.0,57.0,57.0,8.0,BON AIR,34359676.2104,50385.1224371,5178866.9140625,19561.0219454097
11180,2024-11-19 05:00:00,6014 DUTCHMANS LN,LOUISVILLE,40205,38.2293514,-85.64389237,26.0,BOWMAN,POINT (-85.64389237 38.2293514),26.0,27.0,27.0,10.0,BOWMAN,35329001.3923,46240.3586181,5327751.07421875,17954.7960153949
11181,2024-11-19 05:00:00,503 FOXWICK CT,LOUISVILLE,40223,38.25234816,-85.55417367,18.0,,POINT (-85.55417367 38.25234816),,,,,,,,,
11182,2024-11-19 05:00:00,16400 ROCKCREST VIEW LN,LOUISVILLE,40245,38.23835367,-85.4539261,19.0,,POINT (-85.4539261 38.23835367),,,,,,,,,
11183,2024-11-19 05:00:00,14610 VALENCIA DR,LOUISVILLE,40245,38.23559343,-85.49398106,11.0,,POINT (-85.49398106 38.23559343),,,,,,,,,
11184,2024-11-19 05:00:00,879 FETTER AVE,LOUISVILLE,40217,38.21798556,-85.73964141,15.0,SCHNITZELBURG,POINT (-85.73964141 38.21798556),40.0,41.0,41.0,61.0,SCHNITZELBURG,16157895.342,16521.9569405,2436124.69140625,6418.43383454608
11185,2024-11-18 05:00:00,4318 CHURCHILL RD,ST MATTHEWS,40207,38.24889739,-85.63965225,9.0,,POINT (-85.63965225 38.24889739),,,,,,,,,
11186,2024-11-18 05:00:00,1214 FISK ST,LOUISVILLE,40203,38.25328215,-85.77170716,4.0,RUSSELL,POINT (-85.77170716 38.25328215),8.0,9.0,9.0,58.0,RUSSELL,39120816.5583,30140.1113728,5903448.6171875,11696.3609495239
11187,2024-11-18 05:00:00,4128 BARDSTOWN RD,LOUISVILLE,40218,38.18995533,-85.64557532,2.0,,POINT (-85.64557532 38.18995533),,,,,,,,,
11188,2024-11-18 05:00:00,9901 ORMSBY STATION RD,LYNDON,40223,38.26404568,-85.56838449,18.0,,POINT (-85.56838449 38.26404568),,,,,,,,,
11189,2024-11-18 05:00:00,191 OUTER LOOP,LOUISVILLE,40214,38.12783402,-85.7774378,25.0,,POINT (-85.7774378 38.12783402),,,,,,,,,
11190,2024-11-18 05:00:00,313 W MARKET ST,LOUISVILLE,40202,38.2554108,-85.75585266,4.0,CENTRAL BUSINESS DISTRICT,POINT (-85.75585266 38.2554108),7.0,8.0,8.0,17.0,CENTRAL BUSINESS DISTRICT,33029827.6262,27923.7528072,4984184.98046875,10844.9806632446
11191,2024-11-18 05:00:00,8001 MIMOSA DR,LOUISVILLE,40258,38.13634488,-85.85723437,14.0,,POINT (-85.85723437 38.13634488),,,,,,,,,
11192,2024-11-18 05:00:00,709 GHEENS AVE,LOUISVILLE,40214,38.1667517,-85.7777566,21.0,IROQUOIS,POINT (-85.7777566 38.1667517),87.0,88.0,88.0,40.0,IROQUOIS,11842680.5471,13812.6910067,1782853.48828125,5360.83816734473
11193,2024-11-18 05:00:00,6739 STONE VALLEY DR,LOUISVILLE,40272,38.08133325,-85.88424548,14.0,,POINT (-85.88424548 38.08133325),,,,,,,,,
11194,2024-11-18 05:00:00,3523 HUON DR,LOUISVILLE,40218,38.19943484,-85.67438327,10.0,BASHFORD MANOR,POINT (-85.67438327 38.19943484),65.0,66.0,66.0,5.0,BASHFORD MANOR,15474178.8013,19882.2634609,2331859.84765625,7715.49114865788
11195,2024-11-18 05:00:00,1525 TALMADGE WAY,LOUISVILLE,40216,38.17632408,-85.81109035,3.0,CLOVERLEAF,POINT (-85.81109035 38.17632408),81.0,82.0,82.0,24.0,CLOVERLEAF,20213041.9359,19107.5144213,3043897.98828125,7415.15452079604
11196,2024-11-18 05:00:00,4214 HILLBROOK DR,LOUISVILLE,40220,38.22923214,-85.62714702,18.0,HIKES POINT,POINT (-85.62714702 38.22923214),35.0,36.0,36.0,38.0,HIKES POINT,24955231.3045,35065.0187982,3762858.609375,13616.4152736924
11197,2024-11-18 05:00:00,3930 DRUID HILLS RD,DRUID HILLS,40207,38.26468539,-85.66156752,9.0,,POINT (-85.66156752 38.26468539),,,,,,,,,
11198,2024-11-18 05:00:00,4406 BILLY BONE CT,LOUISVILLE,40229,38.1039705,-85.68254373,24.0,,POINT (-85.68254373 38.1039705),,,,,,,,,
11199,2024-11-18 05:00:00,3300 TRINITY RD,LOUISVILLE,40206,38.24684197,-85.66861619,9.0,ROCKCREEK LEXINGTON ROAD,POINT (-85.66861619 38.24684197),13.0,14.0,14.0,57.0,ROCKCREEK LEXINGTON ROAD,16702087.1916,34138.9403283,2519815.84375,13254.3351304708
11200,2024-11-18 05:00:00,6607 ELMWOOD ST,LOUISVILLE,40216,38.19009564,-85.87466655,1.0,,POINT (-85.87466655 38.19009564),,,,,,,,,
11201,2024-11-18 05:00:00,"712 S 23RD ST, 4",LOUISVILLE,40211,38.24889986,-85.79006969,4.0,CALIFORNIA,POINT (-85.79006969 38.24889986),16.0,17.0,17.0,14.0,CALIFORNIA,34280997.7634,24635.7794746,5171558.58984375,9562.54636869943
11202,2024-11-18 05:00:00,116 SAM DR,LOUISVILLE,40214,38.14046892,-85.76672789,13.0,,POINT (-85.76672789 38.14046892),,,,,,,,,
11203,2024-11-18 05:00:00,4875 SHERBURN LN,ST MATTHEWS,40207,38.23997025,-85.62546103,26.0,,POINT (-85.62546103 38.23997025),,,,,,,,,
11204,2024-11-18 05:00:00,611 KATHLEEN AVE,LOUISVILLE,40215,38.18859708,-85.77098135,21.0,BEECHMONT,POINT (-85.77098135 38.18859708),78.0,79.0,79.0,6.0,BEECHMONT,40279693.3847,29071.6030981,6066389.4921875,11283.411717426
11205,2024-11-15 05:00:00,2500 EXPORT DR,SOUTH PARK VIEW,40219,38.12018725,-85.71640806,13.0,,POINT (-85.71640806 38.12018725),,,,,,,,,
